<?xml version="1.0" encoding="utf-8"?>
<inputs xmlns:xsi="http://www.w3.org/2001/XMLSchema-instance" xmlns:xsd="http://www.w3.org/2001/XMLSchema">
  <item neighborhood="Santana" zone="Zona Norte" city="São Paulo" state="São Paulo" location_id="BR&gt;Sao Paulo&gt;NULL&gt;Sao Paulo&gt;Zona Norte&gt;Santana" latitude="-23.498996" longitude="-46.625592" levels="NEIGHBORHOOD">
    <business kind="Rent" />
    <business kind="Sale" />
    <business kind="Development" />
  </item>
  <item neighborhood="Saúde" zone="Zona Sul" city="São Paulo" state="São Paulo" location_id="BR&gt;Sao Paulo&gt;NULL&gt;Sao Paulo&gt;Zona Sul&gt;Saude" latitude="-23.607064" longitude="-46.642778" levels="NEIGHBORHOOD">
    <business kind="Rent" />
    <business kind="Sale" />
    <business kind="Development" />
  </item>
  <item neighborhood="Consolação" zone="Centro" city="São Paulo" state="São Paulo" location_id="BR&gt;Sao Paulo&gt;NULL&gt;Sao Paulo&gt;Centro&gt;Consolacao" latitude="-23.552058" longitude="-46.652577" levels="NEIGHBORHOOD">
    <business kind="Rent" />
    <business kind="Sale" />
    <business kind="Development" />
  </item>
  <item neighborhood="Paraíso" zone="Zona Sul" city="São Paulo" state="São Paulo" location_id="BR&gt;Sao Paulo&gt;NULL&gt;Sao Paulo&gt;Zona Sul&gt;Paraiso" latitude="-23.589702" longitude="-46.634638" levels="NEIGHBORHOOD">
    <business kind="Rent" />
    <business kind="Sale" />
    <business kind="Development" />
  </item>
  <item neighborhood="Butantã" zone="Zona Oeste" city="São Paulo" state="São Paulo" location_id="BR&gt;Sao Paulo&gt;NULL&gt;Sao Paulo&gt;Zona Oeste&gt;Butanta" latitude="-23.580861" longitude="-46.739387" levels="NEIGHBORHOOD">
    <business kind="Rent" />
    <business kind="Sale" />
    <business kind="Development" />
  </item>
  <item neighborhood="Pinheiros" zone="Zona Oeste" city="São Paulo" state="São Paulo" location_id="BR&gt;Sao Paulo&gt;NULL&gt;Sao Paulo&gt;Zona Oeste&gt;Pinheiros" latitude="-23.563579" longitude="-46.691607" levels="NEIGHBORHOOD">
    <business kind="Rent" />
    <business kind="Sale" />
    <business kind="Development" />
  </item>
  <item neighborhood="Brooklin" zone="Zona Sul" city="São Paulo" state="São Paulo" location_id="BR&gt;Sao Paulo&gt;NULL&gt;Sao Paulo&gt;Zona Sul&gt;Brooklin" latitude="-23.608765" longitude="-46.69589" levels="NEIGHBORHOOD">
    <business kind="Rent" />
    <business kind="Sale" />
    <business kind="Development" />
  </item>
  <item neighborhood="Tatuapé" zone="Zona Leste" city="São Paulo" state="São Paulo" location_id="BR&gt;Sao Paulo&gt;NULL&gt;Sao Paulo&gt;Zona Leste&gt;Tatuape" latitude="-23.535245" longitude="-46.575463" levels="NEIGHBORHOOD">
    <business kind="Rent" />
    <business kind="Sale" />
    <business kind="Development" />
  </item>
  <item neighborhood="Aclimação" zone="Centro" city="São Paulo" state="São Paulo" location_id="BR&gt;Sao Paulo&gt;NULL&gt;Sao Paulo&gt;Centro&gt;Aclimacao" latitude="-23.571487" longitude="-46.630972" levels="NEIGHBORHOOD">
    <business kind="Rent" />
    <business kind="Sale" />
    <business kind="Development" />
  </item>
  <item neighborhood="Higienópolis" zone="Centro" city="São Paulo" state="São Paulo" location_id="BR&gt;Sao Paulo&gt;NULL&gt;Sao Paulo&gt;Centro&gt;Higienopolis" latitude="-23.545751" longitude="-46.659943" levels="NEIGHBORHOOD">
    <business kind="Rent" />
    <business kind="Sale" />
    <business kind="Development" />
  </item>
  <item neighborhood="Tucuruvi" zone="Zona Norte" city="São Paulo" state="São Paulo" location_id="BR&gt;Sao Paulo&gt;NULL&gt;Sao Paulo&gt;Zona Norte&gt;Tucuruvi" latitude="-23.473904" longitude="-46.610817" levels="NEIGHBORHOOD">
    <business kind="Rent" />
    <business kind="Sale" />
    <business kind="Development" />
  </item>
  <item neighborhood="Lapa" zone="Zona Oeste" city="São Paulo" state="São Paulo" location_id="BR&gt;Sao Paulo&gt;NULL&gt;Sao Paulo&gt;Zona Oeste&gt;Lapa" latitude="-23.553274" longitude="-46.70963" levels="NEIGHBORHOOD">
    <business kind="Rent" />
    <business kind="Sale" />
    <business kind="Development" />
  </item>
  <item neighborhood="Jardim Paulista" zone="Zona Sul" city="São Paulo" state="São Paulo" location_id="BR&gt;Sao Paulo&gt;NULL&gt;Sao Paulo&gt;Zona Sul&gt;Jardim Paulista" latitude="-23.569371" longitude="-46.671978" levels="NEIGHBORHOOD">
    <business kind="Rent" />
    <business kind="Sale" />
    <business kind="Development" />
  </item>
  <item neighborhood="Vila Mariana" zone="Zona Sul" city="São Paulo" state="São Paulo" location_id="BR&gt;Sao Paulo&gt;NULL&gt;Sao Paulo&gt;Zona Sul&gt;Vila Mariana" latitude="-23.589702" longitude="-46.634638" levels="NEIGHBORHOOD">
    <business kind="Rent" />
    <business kind="Sale" />
    <business kind="Development" />
  </item>
  <item neighborhood="Vila Olímpia" zone="Zona Sul" city="São Paulo" state="São Paulo" location_id="BR&gt;Sao Paulo&gt;NULL&gt;Sao Paulo&gt;Zona Sul&gt;Vila Olimpia" latitude="-23.598157" longitude="-46.68293" levels="NEIGHBORHOOD">
    <business kind="Rent" />
    <business kind="Sale" />
    <business kind="Development" />
  </item>
  <item neighborhood="Vila Prudente" zone="Zona Leste" city="São Paulo" state="São Paulo" location_id="BR&gt;Sao Paulo&gt;NULL&gt;Sao Paulo&gt;Zona Leste&gt;Vila Prudente" latitude="-23.585499" longitude="-46.590024" levels="NEIGHBORHOOD">
    <business kind="Rent" />
    <business kind="Sale" />
    <business kind="Development" />
  </item>
  <item neighborhood="Vila Clementino" zone="Zona Sul" city="São Paulo" state="São Paulo" location_id="BR&gt;Sao Paulo&gt;NULL&gt;Sao Paulo&gt;Zona Sul&gt;Vila Clementino" latitude="-23.598316" longitude="-46.643963" levels="NEIGHBORHOOD">
    <business kind="Rent" />
    <business kind="Sale" />
    <business kind="Development" />
  </item>
  <item neighborhood="Barra Funda" zone="Zona Oeste" city="São Paulo" state="São Paulo" location_id="BR&gt;Sao Paulo&gt;NULL&gt;Sao Paulo&gt;Zona Oeste&gt;Barra Funda" latitude="-23.529192" longitude="-46.660999" levels="NEIGHBORHOOD">
    <business kind="Rent" />
    <business kind="Sale" />
    <business kind="Development" />
  </item>
  <item neighborhood="Vila Madalena" zone="Zona Oeste" city="São Paulo" state="São Paulo" location_id="BR&gt;Sao Paulo&gt;NULL&gt;Sao Paulo&gt;Zona Oeste&gt;Vila Madalena" latitude="-23.548709" longitude="-46.692871" levels="NEIGHBORHOOD">
    <business kind="Rent" />
    <business kind="Sale" />
    <business kind="Development" />
  </item>
  <item neighborhood="Campo Belo" zone="Zona Sul" city="São Paulo" state="São Paulo" location_id="BR&gt;Sao Paulo&gt;NULL&gt;Sao Paulo&gt;Zona Sul&gt;Campo Belo" latitude="-23.62203" longitude="-46.67202" levels="NEIGHBORHOOD">
    <business kind="Rent" />
    <business kind="Sale" />
    <business kind="Development" />
  </item>
  <item neighborhood="Vila Andrade" zone="Zona Sul" city="São Paulo" state="São Paulo" location_id="BR&gt;Sao Paulo&gt;NULL&gt;Sao Paulo&gt;Zona Sul&gt;VILA ANDRADE" latitude="-23.631509" longitude="-46.736743" levels="NEIGHBORHOOD">
    <business kind="Rent" />
    <business kind="Sale" />
    <business kind="Development" />
  </item>
  <item neighborhood="Santa Cecília" zone="Centro" city="São Paulo" state="São Paulo" location_id="BR&gt;Sao Paulo&gt;NULL&gt;Sao Paulo&gt;Centro&gt;Santa Cecilia" latitude="-23.541705" longitude="-46.650918" levels="NEIGHBORHOOD">
    <business kind="Rent" />
    <business kind="Sale" />
    <business kind="Development" />
  </item>
  <item neighborhood="Indianópolis" zone="Zona Sul" city="São Paulo" state="São Paulo" location_id="BR&gt;Sao Paulo&gt;NULL&gt;Sao Paulo&gt;Zona Sul&gt;Indianopolis" latitude="-23.612476" longitude="-46.661547" levels="NEIGHBORHOOD">
    <business kind="Rent" />
    <business kind="Sale" />
    <business kind="Development" />
  </item>
  <item neighborhood="Jardim América" zone="Zona Sul" city="São Paulo" state="São Paulo" location_id="BR&gt;Sao Paulo&gt;NULL&gt;Sao Paulo&gt;Zona Sul&gt;Jardim America" latitude="-23.563579" longitude="-46.691607" levels="NEIGHBORHOOD">
    <business kind="Rent" />
    <business kind="Sale" />
    <business kind="Development" />
  </item>
  <item neighborhood="Vila Nova Conceição" zone="Zona Sul" city="São Paulo" state="São Paulo" location_id="BR&gt;Sao Paulo&gt;NULL&gt;Sao Paulo&gt;Zona Sul&gt;Vila Nova Conceicao" latitude="-23.591783" longitude="-46.672733" levels="NEIGHBORHOOD">
    <business kind="Rent" />
    <business kind="Sale" />
    <business kind="Development" />
  </item>
  <item neighborhood="Chácara Santo Antônio" zone="Zona Sul" city="São Paulo" state="São Paulo" location_id="BR&gt;Sao Paulo&gt;NULL&gt;Sao Paulo&gt;Zona Sul&gt;Chacara Santo Antonio" latitude="-23.648124" longitude="-46.72005" levels="NEIGHBORHOOD">
    <business kind="Rent" />
    <business kind="Sale" />
    <business kind="Development" />
  </item>
  <item neighborhood="Vila Carrão" zone="Zona Leste" city="São Paulo" state="São Paulo" location_id="BR&gt;Sao Paulo&gt;NULL&gt;Sao Paulo&gt;Zona Leste&gt;Vila Carrao" latitude="-23.535245" longitude="-46.575463" levels="NEIGHBORHOOD">
    <business kind="Rent" />
    <business kind="Sale" />
    <business kind="Development" />
  </item>
  <item neighborhood="Jardim São Paulo" zone="Zona Norte" city="São Paulo" state="São Paulo" location_id="BR&gt;Sao Paulo&gt;NULL&gt;Sao Paulo&gt;Zona Norte&gt;Jardim Sao Paulo" latitude="-23.4867" longitude="-46.612492" levels="NEIGHBORHOOD">
    <business kind="Rent" />
    <business kind="Sale" />
    <business kind="Development" />
  </item>
  <item neighborhood="Alto de Pinheiros" zone="Zona Oeste" city="São Paulo" state="São Paulo" location_id="BR&gt;Sao Paulo&gt;NULL&gt;Sao Paulo&gt;Zona Oeste&gt;Alto de Pinheiros" latitude="-23.53985" longitude="-46.710385" levels="NEIGHBORHOOD">
    <business kind="Rent" />
    <business kind="Sale" />
    <business kind="Development" />
  </item>
  <item neighborhood="Vila Romana" zone="Zona Oeste" city="São Paulo" state="São Paulo" location_id="BR&gt;Sao Paulo&gt;NULL&gt;Sao Paulo&gt;Zona Oeste&gt;Vila Romana" latitude="-23.52919" longitude="-46.697924" levels="NEIGHBORHOOD">
    <business kind="Rent" />
    <business kind="Sale" />
    <business kind="Development" />
  </item>
  <item neighborhood="Alto da Lapa" zone="Zona Oeste" city="São Paulo" state="São Paulo" location_id="BR&gt;Sao Paulo&gt;NULL&gt;Sao Paulo&gt;Zona Oeste&gt;Alto da Lapa" latitude="-23.528989" longitude="-46.720086" levels="NEIGHBORHOOD">
    <business kind="Rent" />
    <business kind="Sale" />
    <business kind="Development" />
  </item>
  <item neighborhood="Chácara Klabin" zone="Zona Sul" city="São Paulo" state="São Paulo" location_id="BR&gt;Sao Paulo&gt;NULL&gt;Sao Paulo&gt;Zona Sul&gt;Chacara Klabin" latitude="-23.589702" longitude="-46.634638" levels="NEIGHBORHOOD">
    <business kind="Rent" />
    <business kind="Sale" />
    <business kind="Development" />
  </item>
  <item neighborhood="Casa Verde" zone="Zona Norte" city="São Paulo" state="São Paulo" location_id="BR&gt;Sao Paulo&gt;NULL&gt;Sao Paulo&gt;Zona Norte&gt;Casa Verde" latitude="-23.510988" longitude="-46.657442" levels="NEIGHBORHOOD">
    <business kind="Rent" />
    <business kind="Sale" />
    <business kind="Development" />
  </item>
  <item neighborhood="Brás" zone="Zona Leste" city="São Paulo" state="São Paulo" location_id="BR&gt;Sao Paulo&gt;NULL&gt;Sao Paulo&gt;Zona Leste&gt;Bras" latitude="-23.537739" longitude="-46.613951" levels="NEIGHBORHOOD">
    <business kind="Rent" />
    <business kind="Sale" />
    <business kind="Development" />
  </item>
  <item neighborhood="Sumaré" zone="Zona Oeste" city="São Paulo" state="São Paulo" location_id="BR&gt;Sao Paulo&gt;NULL&gt;Sao Paulo&gt;Zona Oeste&gt;Sumare" latitude="-23.544415" longitude="-46.685197" levels="NEIGHBORHOOD">
    <business kind="Rent" />
    <business kind="Sale" />
    <business kind="Development" />
  </item>
  <item neighborhood="Moema" zone="Zona Sul" city="São Paulo" state="São Paulo" location_id="BR&gt;Sao Paulo&gt;NULL&gt;Sao Paulo&gt;Zona Sul&gt;Moema" latitude="-23.602021" longitude="-46.672103" levels="NEIGHBORHOOD">
    <business kind="Rent" />
    <business kind="Sale" />
    <business kind="Development" />
  </item>
  <item neighborhood="Ipiranga" zone="Zona Sul" city="São Paulo" state="São Paulo" location_id="BR&gt;Sao Paulo&gt;NULL&gt;Sao Paulo&gt;Zona Sul&gt;Ipiranga" latitude="-23.588061" longitude="-46.604037" levels="NEIGHBORHOOD">
    <business kind="Rent" />
    <business kind="Sale" />
    <business kind="Development" />
  </item>
  <item neighborhood="Móoca" zone="Zona Leste" city="São Paulo" state="São Paulo" location_id="BR&gt;Sao Paulo&gt;NULL&gt;Sao Paulo&gt;Zona Leste&gt;Mooca" latitude="-23.560327" longitude="-46.59959" levels="NEIGHBORHOOD">
    <business kind="Rent" />
    <business kind="Sale" />
    <business kind="Development" />
  </item>
  <item neighborhood="Perdizes" zone="Zona Oeste" city="São Paulo" state="São Paulo" location_id="BR&gt;Sao Paulo&gt;NULL&gt;Sao Paulo&gt;Zona Oeste&gt;Perdizes" latitude="-23.536902" longitude="-46.674317" levels="NEIGHBORHOOD">
    <business kind="Rent" />
    <business kind="Sale" />
    <business kind="Development" />
  </item>
  <item neighborhood="Morumbi" zone="Zona Sul" city="São Paulo" state="São Paulo" location_id="BR&gt;Sao Paulo&gt;NULL&gt;Sao Paulo&gt;Zona Sul&gt;Morumbi" latitude="-23.61748" longitude="-46.743097" levels="NEIGHBORHOOD">
    <business kind="Rent" />
    <business kind="Sale" />
    <business kind="Development" />
  </item>
  <item neighborhood="Jabaquara" zone="Zona Sul" city="São Paulo" state="São Paulo" location_id="BR&gt;Sao Paulo&gt;NULL&gt;Sao Paulo&gt;Zona Sul&gt;Jabaquara" latitude="-23.658265" longitude="-46.64743" levels="NEIGHBORHOOD">
    <business kind="Rent" />
    <business kind="Sale" />
    <business kind="Development" />
  </item>
  <item neighborhood="Cambuci" zone="Zona Sul" city="São Paulo" state="São Paulo" location_id="BR&gt;Sao Paulo&gt;NULL&gt;Sao Paulo&gt;Zona Sul&gt;Cambuci" latitude="-23.564473" longitude="-46.621113" levels="NEIGHBORHOOD">
    <business kind="Rent" />
    <business kind="Sale" />
    <business kind="Development" />
  </item>
  <item neighborhood="Centro" zone="Centro" city="São Paulo" state="São Paulo" location_id="BR&gt;Sao Paulo&gt;NULL&gt;Sao Paulo&gt;Centro&gt;Centro" latitude="-23.545108" longitude="-46.642778" levels="NEIGHBORHOOD">
    <business kind="Rent" />
    <business kind="Sale" />
    <business kind="Development" />
  </item>
  <item neighborhood="Vila Suzana" zone="Zona Oeste" city="São Paulo" state="São Paulo" location_id="BR&gt;Sao Paulo&gt;NULL&gt;Sao Paulo&gt;Zona Oeste&gt;Vila Suzana" latitude="-23.61748" longitude="-46.743097" levels="NEIGHBORHOOD">
    <business kind="Rent" />
    <business kind="Sale" />
    <business kind="Development" />
  </item>
  <item neighborhood="Panamby" zone="Zona Sul" city="São Paulo" state="São Paulo" location_id="BR&gt;Sao Paulo&gt;NULL&gt;Sao Paulo&gt;Zona Sul&gt;Panamby" latitude="-23.631509" longitude="-46.736743" levels="NEIGHBORHOOD">
    <business kind="Rent" />
    <business kind="Sale" />
    <business kind="Development" />
  </item>
  <item neighborhood="Jardim Anália Franco" zone="Zona Leste" city="São Paulo" state="São Paulo" location_id="BR&gt;Sao Paulo&gt;NULL&gt;Sao Paulo&gt;Zona Leste&gt;Jardim Analia Franco" latitude="-23.5603" longitude="-46.566217" levels="NEIGHBORHOOD">
    <business kind="Rent" />
    <business kind="Sale" />
    <business kind="Development" />
  </item>
  <item neighborhood="Itaim Bibi" zone="Zona Sul" city="São Paulo" state="São Paulo" location_id="BR&gt;Sao Paulo&gt;NULL&gt;Sao Paulo&gt;Zona Sul&gt;Itaim Bibi" latitude="-23.591783" longitude="-46.672733" levels="NEIGHBORHOOD">
    <business kind="Rent" />
    <business kind="Sale" />
    <business kind="Development" />
  </item>
  <item neighborhood="Vila Leopoldina" zone="Zona Oeste" city="São Paulo" state="São Paulo" location_id="BR&gt;Sao Paulo&gt;NULL&gt;Sao Paulo&gt;Zona Oeste&gt;Vila Leopoldina" latitude="-23.522734" longitude="-46.711419" levels="NEIGHBORHOOD">
    <business kind="Rent" />
    <business kind="Sale" />
    <business kind="Development" />
  </item>
  <item neighborhood="Bela Vista" zone="Centro" city="São Paulo" state="São Paulo" location_id="BR&gt;Sao Paulo&gt;NULL&gt;Sao Paulo&gt;Centro&gt;Bela Vista" latitude="-23.555405" longitude="-46.645643" levels="NEIGHBORHOOD">
    <business kind="Rent" />
    <business kind="Sale" />
    <business kind="Development" />
  </item>
  <item neighborhood="Vila Matilde" zone="Zona Leste" city="São Paulo" state="São Paulo" location_id="BR&gt;Sao Paulo&gt;NULL&gt;Sao Paulo&gt;Zona Leste&gt;Vila Matilde" latitude="-23.537721" longitude="-46.525646" levels="NEIGHBORHOOD">
    <business kind="Rent" />
    <business kind="Sale" />
    <business kind="Development" />
  </item>
  <item neighborhood="Pompeia" zone="Zona Oeste" city="São Paulo" state="São Paulo" location_id="BR&gt;Sao Paulo&gt;NULL&gt;Sao Paulo&gt;Zona Oeste&gt;POMPEIA" latitude="-23.538785" longitude="-46.693475" levels="NEIGHBORHOOD">
    <business kind="Rent" />
    <business kind="Sale" />
    <business kind="Development" />
  </item>
  <item neighborhood="Santo Amaro" zone="Zona Sul" city="São Paulo" state="São Paulo" location_id="BR&gt;Sao Paulo&gt;NULL&gt;Sao Paulo&gt;Zona Sul&gt;Santo Amaro" latitude="-23.653663" longitude="-46.706693" levels="NEIGHBORHOOD">
    <business kind="Rent" />
    <business kind="Sale" />
    <business kind="Development" />
  </item>
  <item neighborhood="Vila Formosa" zone="Zona Leste" city="São Paulo" state="São Paulo" location_id="BR&gt;Sao Paulo&gt;NULL&gt;Sao Paulo&gt;Zona Leste&gt;Vila Formosa" latitude="-23.567186" longitude="-46.543792" levels="NEIGHBORHOOD">
    <business kind="Rent" />
    <business kind="Sale" />
    <business kind="Development" />
  </item>
  <item neighborhood="Real Parque" zone="Zona Sul" city="São Paulo" state="São Paulo" location_id="BR&gt;Sao Paulo&gt;NULL&gt;Sao Paulo&gt;Zona Sul&gt;Real Parque" latitude="-23.608868" longitude="-46.704072" levels="NEIGHBORHOOD">
    <business kind="Rent" />
    <business kind="Sale" />
    <business kind="Development" />
  </item>
  <item neighborhood="Vila Mascote" zone="Zona Sul" city="São Paulo" state="São Paulo" location_id="BR&gt;Sao Paulo&gt;NULL&gt;Sao Paulo&gt;Zona Sul&gt;Vila Mascote" latitude="-23.646411" longitude="-46.666913" levels="NEIGHBORHOOD">
    <business kind="Rent" />
    <business kind="Sale" />
    <business kind="Development" />
  </item>
  <item neighborhood="Bosque da Saúde" zone="Zona Sul" city="São Paulo" state="São Paulo" location_id="BR&gt;Sao Paulo&gt;NULL&gt;Sao Paulo&gt;Zona Sul&gt;Bosque da Saude" latitude="-23.611452" longitude="-46.623336" levels="NEIGHBORHOOD">
    <business kind="Rent" />
    <business kind="Sale" />
    <business kind="Development" />
  </item>
  <item neighborhood="Cerqueira César" zone="Centro" city="São Paulo" state="São Paulo" location_id="BR&gt;Sao Paulo&gt;NULL&gt;Sao Paulo&gt;Centro&gt;Cerqueira Cesar" latitude="-23.559397" longitude="-46.668759" levels="NEIGHBORHOOD">
    <business kind="Rent" />
    <business kind="Sale" />
    <business kind="Development" />
  </item>
  <item neighborhood="República" zone="Centro" city="São Paulo" state="São Paulo" location_id="BR&gt;Sao Paulo&gt;NULL&gt;Sao Paulo&gt;Centro&gt;Republica" latitude="-23.545108" longitude="-46.642778" levels="NEIGHBORHOOD">
    <business kind="Rent" />
    <business kind="Sale" />
    <business kind="Development" />
  </item>
  <item neighborhood="Jardins" zone="Zona Oeste" city="São Paulo" state="São Paulo" location_id="BR&gt;Sao Paulo&gt;NULL&gt;Sao Paulo&gt;Zona Oeste&gt;Jardins" latitude="-23.559397" longitude="-46.668759" levels="NEIGHBORHOOD">
    <business kind="Rent" />
    <business kind="Sale" />
    <business kind="Development" />
  </item>
  <item neighborhood="Jardim Marajoara" zone="Zona Sul" city="São Paulo" state="São Paulo" location_id="BR&gt;Sao Paulo&gt;NULL&gt;Sao Paulo&gt;Zona Sul&gt;Jardim Marajoara" latitude="-23.670663" longitude="-46.690455" levels="NEIGHBORHOOD">
    <business kind="Rent" />
    <business kind="Sale" />
    <business kind="Development" />
  </item>
  <item neighborhood="Jaguaré" zone="Zona Oeste" city="São Paulo" state="São Paulo" location_id="BR&gt;Sao Paulo&gt;NULL&gt;Sao Paulo&gt;Zona Oeste&gt;Jaguare" latitude="-23.552463" longitude="-46.753895" levels="NEIGHBORHOOD">
    <business kind="Rent" />
    <business kind="Sale" />
    <business kind="Development" />
  </item>
  <item neighborhood="Água Branca" zone="Zona Oeste" city="São Paulo" state="São Paulo" location_id="BR&gt;Sao Paulo&gt;NULL&gt;Sao Paulo&gt;Zona Oeste&gt;Agua Branca" latitude="-23.515253" longitude="-46.690828" levels="NEIGHBORHOOD">
    <business kind="Rent" />
    <business kind="Sale" />
    <business kind="Development" />
  </item>
  <item neighborhood="Planalto Paulista" zone="Zona Sul" city="São Paulo" state="São Paulo" location_id="BR&gt;Sao Paulo&gt;NULL&gt;Sao Paulo&gt;Zona Sul&gt;Planalto Paulista" latitude="-23.618631" longitude="-46.648275" levels="NEIGHBORHOOD">
    <business kind="Rent" />
    <business kind="Sale" />
    <business kind="Development" />
  </item>
  <item neighborhood="Imirim" zone="Zona Norte" city="São Paulo" state="São Paulo" location_id="BR&gt;Sao Paulo&gt;NULL&gt;Sao Paulo&gt;Zona Norte&gt;Imirim" latitude="-23.478148" longitude="-46.655346" levels="NEIGHBORHOOD">
    <business kind="Rent" />
    <business kind="Sale" />
    <business kind="Development" />
  </item>
  <item neighborhood="Pirituba" zone="Zona Norte" city="São Paulo" state="São Paulo" location_id="BR&gt;Sao Paulo&gt;NULL&gt;Sao Paulo&gt;Zona Norte&gt;Pirituba" latitude="-23.499973" longitude="-46.722585" levels="NEIGHBORHOOD">
    <business kind="Rent" />
    <business kind="Sale" />
    <business kind="Development" />
  </item>
  <item neighborhood="Vila Sônia" zone="Zona Oeste" city="São Paulo" state="São Paulo" location_id="BR&gt;Sao Paulo&gt;NULL&gt;Sao Paulo&gt;Zona Oeste&gt;Vila Sonia" latitude="-23.598158" longitude="-46.727301" levels="NEIGHBORHOOD">
    <business kind="Rent" />
    <business kind="Sale" />
    <business kind="Development" />
  </item>
  <item neighborhood="Jardim Prudência" zone="Zona Sul" city="São Paulo" state="São Paulo" location_id="BR&gt;Sao Paulo&gt;NULL&gt;Sao Paulo&gt;Zona Sul&gt;Jardim Prudencia" latitude="-23.645725" longitude="-46.766592" levels="NEIGHBORHOOD">
    <business kind="Rent" />
    <business kind="Sale" />
    <business kind="Development" />
  </item>
  <item neighborhood="Penha" zone="Zona Leste" city="São Paulo" state="São Paulo" location_id="BR&gt;Sao Paulo&gt;NULL&gt;Sao Paulo&gt;Zona Leste&gt;Penha" latitude="-23.520289" longitude="-46.536724" levels="NEIGHBORHOOD">
    <business kind="Rent" />
    <business kind="Sale" />
    <business kind="Development" />
  </item>
  <item neighborhood="Vila Mazzei" zone="Zona Norte" city="São Paulo" state="São Paulo" location_id="BR&gt;Sao Paulo&gt;NULL&gt;Sao Paulo&gt;Zona Norte&gt;Vila Mazzei" latitude="-23.475695" longitude="-46.603057" levels="NEIGHBORHOOD">
    <business kind="Rent" />
    <business kind="Sale" />
    <business kind="Development" />
  </item>
  <item neighborhood="Vila Guarani" zone="Zona Sul" city="São Paulo" state="São Paulo" location_id="BR&gt;Sao Paulo&gt;NULL&gt;Sao Paulo&gt;Zona Sul&gt;Vila Guarani" latitude="-23.628384" longitude="-46.63554" levels="NEIGHBORHOOD">
    <business kind="Rent" />
    <business kind="Sale" />
    <business kind="Development" />
  </item>
  <item neighborhood="Vila Regente Feijó" zone="Zona Leste" city="São Paulo" state="São Paulo" location_id="BR&gt;Sao Paulo&gt;NULL&gt;Sao Paulo&gt;Zona Leste&gt;Vila Regente Feijo" latitude="-23.5603" longitude="-46.566217" levels="NEIGHBORHOOD">
    <business kind="Rent" />
    <business kind="Sale" />
    <business kind="Development" />
  </item>
  <item neighborhood="Penha De Franca" zone="Zona Leste" city="São Paulo" state="São Paulo" location_id="BR&gt;Sao Paulo&gt;NULL&gt;Sao Paulo&gt;Zona Leste&gt;Penha De Franca" latitude="-23.525806" longitude="-46.548881" levels="NEIGHBORHOOD">
    <business kind="Rent" />
    <business kind="Sale" />
    <business kind="Development" />
  </item>
  <item neighborhood="Campos Eliseos" zone="Centro" city="São Paulo" state="São Paulo" location_id="BR&gt;Sao Paulo&gt;NULL&gt;Sao Paulo&gt;Centro&gt;Campos Eliseos" latitude="-23.532169" longitude="-46.645579" levels="NEIGHBORHOOD">
    <business kind="Rent" />
    <business kind="Sale" />
    <business kind="Development" />
  </item>
  <item neighborhood="Campo Grande" zone="Zona Sul" city="São Paulo" state="São Paulo" location_id="BR&gt;Sao Paulo&gt;NULL&gt;Sao Paulo&gt;Zona Sul&gt;Campo Grande" latitude="-23.684936" longitude="-46.688644" levels="NEIGHBORHOOD">
    <business kind="Rent" />
    <business kind="Sale" />
    <business kind="Development" />
  </item>
  <item neighborhood="Jardim Paulistano" zone="Zona Oeste" city="São Paulo" state="São Paulo" location_id="BR&gt;Sao Paulo&gt;NULL&gt;Sao Paulo&gt;Zona Oeste&gt;Jardim Paulistano" latitude="-23.570904" longitude="-46.683531" levels="NEIGHBORHOOD">
    <business kind="Rent" />
    <business kind="Sale" />
    <business kind="Development" />
  </item>
  <item neighborhood="Vila Maria" zone="Zona Norte" city="São Paulo" state="São Paulo" location_id="BR&gt;Sao Paulo&gt;NULL&gt;Sao Paulo&gt;Zona Norte&gt;Vila Maria" latitude="-23.501857" longitude="-46.57671" levels="NEIGHBORHOOD">
    <business kind="Rent" />
    <business kind="Sale" />
    <business kind="Development" />
  </item>
  <item neighborhood="Vila Ema" zone="Zona Leste" city="São Paulo" state="São Paulo" location_id="BR&gt;Sao Paulo&gt;NULL&gt;Sao Paulo&gt;Zona Leste&gt;Vila Ema" latitude="-23.590725" longitude="-46.527094" levels="NEIGHBORHOOD">
    <business kind="Rent" />
    <business kind="Sale" />
    <business kind="Development" />
  </item>
  <item neighborhood="Tremembé" zone="Zona Norte" city="São Paulo" state="São Paulo" location_id="BR&gt;Sao Paulo&gt;NULL&gt;Sao Paulo&gt;Zona Norte&gt;Tremembe" latitude="-23.465862" longitude="-46.597185" levels="NEIGHBORHOOD">
    <business kind="Rent" />
    <business kind="Sale" />
    <business kind="Development" />
  </item>
  <item neighborhood="Jardim Guedala" zone="Zona Sul" city="São Paulo" state="São Paulo" location_id="BR&gt;Sao Paulo&gt;NULL&gt;Sao Paulo&gt;Zona Sul&gt;Jardim Guedala" latitude="-23.598051" longitude="-46.719873" levels="NEIGHBORHOOD">
    <business kind="Rent" />
    <business kind="Sale" />
    <business kind="Development" />
  </item>
  <item neighborhood="Belenzinho" zone="Zona Leste" city="São Paulo" state="São Paulo" location_id="BR&gt;Sao Paulo&gt;NULL&gt;Sao Paulo&gt;Zona Leste&gt;Belenzinho" latitude="-23.53689" longitude="-46.591617" levels="NEIGHBORHOOD">
    <business kind="Rent" />
    <business kind="Sale" />
    <business kind="Development" />
  </item>
  <item neighborhood="Jardim Bonfiglioli" zone="Zona Oeste" city="São Paulo" state="São Paulo" location_id="BR&gt;Sao Paulo&gt;NULL&gt;Sao Paulo&gt;Zona Oeste&gt;Jardim Bonfiglioli" latitude="-23.583596" longitude="-46.76115" levels="NEIGHBORHOOD">
    <business kind="Rent" />
    <business kind="Sale" />
    <business kind="Development" />
  </item>
  <item neighborhood="Granja Julieta" zone="Zona Sul" city="São Paulo" state="São Paulo" location_id="BR&gt;Sao Paulo&gt;NULL&gt;Sao Paulo&gt;Zona Sul&gt;Granja Julieta" latitude="-23.630368" longitude="-46.703792" levels="NEIGHBORHOOD">
    <business kind="Rent" />
    <business kind="Sale" />
    <business kind="Development" />
  </item>
  <item neighborhood="Bom Retiro" zone="Centro" city="São Paulo" state="São Paulo" location_id="BR&gt;Sao Paulo&gt;NULL&gt;Sao Paulo&gt;Centro&gt;Bom Retiro" latitude="-23.52567" longitude="-46.640706" levels="NEIGHBORHOOD">
    <business kind="Rent" />
    <business kind="Sale" />
    <business kind="Development" />
  </item>
  <item neighborhood="Mandaqui" zone="Zona Norte" city="São Paulo" state="São Paulo" location_id="BR&gt;Sao Paulo&gt;NULL&gt;Sao Paulo&gt;Zona Norte&gt;Mandaqui" latitude="-23.481486" longitude="-46.637953" levels="NEIGHBORHOOD">
    <business kind="Rent" />
    <business kind="Sale" />
    <business kind="Development" />
  </item>
  <item neighborhood="Freguesia do Ó" zone="Zona Norte" city="São Paulo" state="São Paulo" location_id="BR&gt;Sao Paulo&gt;NULL&gt;Sao Paulo&gt;Zona Norte&gt;Freguesia do O" latitude="-23.501497" longitude="-46.697702" levels="NEIGHBORHOOD">
    <business kind="Rent" />
    <business kind="Sale" />
    <business kind="Development" />
  </item>
  <item neighborhood="Alto da Mooca" zone="Zona Leste" city="São Paulo" state="São Paulo" location_id="BR&gt;Sao Paulo&gt;NULL&gt;Sao Paulo&gt;Zona Leste&gt;Alto da Mooca" latitude="-23.564019" longitude="-46.587312" levels="NEIGHBORHOOD">
    <business kind="Rent" />
    <business kind="Sale" />
    <business kind="Development" />
  </item>
  <item neighborhood="Itaquera" zone="Zona Leste" city="São Paulo" state="São Paulo" location_id="BR&gt;Sao Paulo&gt;NULL&gt;Sao Paulo&gt;Zona Leste&gt;Itaquera" latitude="-23.539612" longitude="-46.453655" levels="NEIGHBORHOOD">
    <business kind="Rent" />
    <business kind="Sale" />
    <business kind="Development" />
  </item>
  <item neighborhood="Parque Mandaqui" zone="Zona Norte" city="São Paulo" state="São Paulo" location_id="BR&gt;Sao Paulo&gt;NULL&gt;Sao Paulo&gt;Zona Norte&gt;Parque Mandaqui" latitude="-23.474062" longitude="-46.636703" levels="NEIGHBORHOOD">
    <business kind="Rent" />
    <business kind="Sale" />
    <business kind="Development" />
  </item>
  <item neighborhood="Jardim das Acacias" zone="Zona Sul" city="São Paulo" state="São Paulo" location_id="BR&gt;Sao Paulo&gt;NULL&gt;Sao Paulo&gt;Zona Sul&gt;Jardim das Acacias" latitude="-23.623783" longitude="-46.691059" levels="NEIGHBORHOOD">
    <business kind="Rent" />
    <business kind="Sale" />
    <business kind="Development" />
  </item>
  <item neighborhood="Vila Guilherme" zone="Zona Norte" city="São Paulo" state="São Paulo" location_id="BR&gt;Sao Paulo&gt;NULL&gt;Sao Paulo&gt;Zona Norte&gt;Vila Guilherme" latitude="-23.524611" longitude="-46.604187" levels="NEIGHBORHOOD">
    <business kind="Rent" />
    <business kind="Sale" />
    <business kind="Development" />
  </item>
  <item neighborhood="Parada Inglesa" zone="Zona Norte" city="São Paulo" state="São Paulo" location_id="BR&gt;Sao Paulo&gt;NULL&gt;Sao Paulo&gt;Zona Norte&gt;Parada Inglesa" latitude="-23.488882" longitude="-46.604187" levels="NEIGHBORHOOD">
    <business kind="Rent" />
    <business kind="Sale" />
    <business kind="Development" />
  </item>
  <item neighborhood="Limão" zone="Zona Norte" city="São Paulo" state="São Paulo" location_id="BR&gt;Sao Paulo&gt;NULL&gt;Sao Paulo&gt;Zona Norte&gt;Limao" latitude="-23.491705" longitude="-46.681399" levels="NEIGHBORHOOD">
    <business kind="Rent" />
    <business kind="Sale" />
    <business kind="Development" />
  </item>
  <item neighborhood="Pacaembu" zone="Zona Oeste" city="São Paulo" state="São Paulo" location_id="BR&gt;Sao Paulo&gt;NULL&gt;Sao Paulo&gt;Zona Oeste&gt;Pacaembu" latitude="-23.546024" longitude="-46.669363" levels="NEIGHBORHOOD">
    <business kind="Rent" />
    <business kind="Sale" />
    <business kind="Development" />
  </item>
  <item neighborhood="Liberdade" zone="Centro" city="São Paulo" state="São Paulo" location_id="BR&gt;Sao Paulo&gt;NULL&gt;Sao Paulo&gt;Centro&gt;Liberdade" latitude="-23.571487" longitude="-46.630972" levels="NEIGHBORHOOD">
    <business kind="Rent" />
    <business kind="Sale" />
    <business kind="Development" />
  </item>
  <item neighborhood="Horto Florestal" zone="Zona Norte" city="São Paulo" state="São Paulo" location_id="BR&gt;Sao Paulo&gt;NULL&gt;Sao Paulo&gt;Zona Norte&gt;Horto Florestal" latitude="-23.456004" longitude="-46.62982" levels="NEIGHBORHOOD">
    <business kind="Rent" />
    <business kind="Sale" />
    <business kind="Development" />
  </item>
  <item neighborhood="Interlagos" zone="Zona Sul" city="São Paulo" state="São Paulo" location_id="BR&gt;Sao Paulo&gt;NULL&gt;Sao Paulo&gt;Zona Sul&gt;Interlagos" latitude="-23.701697" longitude="-46.705899" levels="NEIGHBORHOOD">
    <business kind="Rent" />
    <business kind="Sale" />
    <business kind="Development" />
  </item>
  <item neighborhood="Vila Medeiros" zone="Zona Norte" city="São Paulo" state="São Paulo" location_id="BR&gt;Sao Paulo&gt;NULL&gt;Sao Paulo&gt;Zona Norte&gt;Vila Medeiros" latitude="-23.489255" longitude="-46.584522" levels="NEIGHBORHOOD">
    <business kind="Rent" />
    <business kind="Sale" />
    <business kind="Development" />
  </item>
  <item neighborhood="Mirandópolis" zone="Zona Sul" city="São Paulo" state="São Paulo" location_id="BR&gt;Sao Paulo&gt;NULL&gt;Sao Paulo&gt;Zona Sul&gt;Mirandopolis" latitude="-23.618338" longitude="-46.635497" levels="NEIGHBORHOOD">
    <business kind="Rent" />
    <business kind="Sale" />
    <business kind="Development" />
  </item>
  <item neighborhood="Sacomã" zone="Zona Sul" city="São Paulo" state="São Paulo" location_id="BR&gt;Sao Paulo&gt;NULL&gt;Sao Paulo&gt;Zona Sul&gt;Sacoma" latitude="-23.614995" longitude="-46.596954" levels="NEIGHBORHOOD">
    <business kind="Rent" />
    <business kind="Sale" />
    <business kind="Development" />
  </item>
  <item neighborhood="Lauzane Paulista" zone="Zona Norte" city="São Paulo" state="São Paulo" location_id="BR&gt;Sao Paulo&gt;NULL&gt;Sao Paulo&gt;Zona Norte&gt;Lauzane Paulista" latitude="-23.47102" longitude="-46.654241" levels="NEIGHBORHOOD">
    <business kind="Rent" />
    <business kind="Sale" />
    <business kind="Development" />
  </item>
  <item neighborhood="Vila Nova Cachoeirinha" zone="Zona Norte" city="São Paulo" state="São Paulo" location_id="BR&gt;Sao Paulo&gt;NULL&gt;Sao Paulo&gt;Zona Norte&gt;Vila Nova Cachoeirinha" latitude="-23.47102" longitude="-46.654241" levels="NEIGHBORHOOD">
    <business kind="Rent" />
    <business kind="Sale" />
    <business kind="Development" />
  </item>
  <item neighborhood="Jaragua" zone="Zona Norte" city="São Paulo" state="São Paulo" location_id="BR&gt;Sao Paulo&gt;NULL&gt;Sao Paulo&gt;Zona Norte&gt;Jaragua" latitude="-23.457497" longitude="-46.743813" levels="NEIGHBORHOOD">
    <business kind="Rent" />
    <business kind="Sale" />
    <business kind="Development" />
  </item>
  <item neighborhood="Cidade Patriarca" zone="Zona Leste" city="São Paulo" state="São Paulo" location_id="BR&gt;Sao Paulo&gt;NULL&gt;Sao Paulo&gt;Zona Leste&gt;Cidade Patriarca" latitude="-23.545991" longitude="-46.509644" levels="NEIGHBORHOOD">
    <business kind="Rent" />
    <business kind="Sale" />
    <business kind="Development" />
  </item>
  <item neighborhood="Chácara Inglesa" zone="Zona Sul" city="São Paulo" state="São Paulo" location_id="BR&gt;Sao Paulo&gt;NULL&gt;Sao Paulo&gt;Zona Sul&gt;Chacara Inglesa" latitude="-23.604993" longitude="-46.62941" levels="NEIGHBORHOOD">
    <business kind="Rent" />
    <business kind="Sale" />
    <business kind="Development" />
  </item>
  <item neighborhood="Jardim Europa" zone="Zona Oeste" city="São Paulo" state="São Paulo" location_id="BR&gt;Sao Paulo&gt;NULL&gt;Sao Paulo&gt;Zona Oeste&gt;Jardim Europa" latitude="-23.570904" longitude="-46.683531" levels="NEIGHBORHOOD">
    <business kind="Rent" />
    <business kind="Sale" />
    <business kind="Development" />
  </item>
  <item neighborhood="Alto Da Boa Vista" zone="Zona Sul" city="São Paulo" state="São Paulo" location_id="BR&gt;Sao Paulo&gt;NULL&gt;Sao Paulo&gt;Zona Sul&gt;Alto Da Boa Vista" latitude="-23.653663" longitude="-46.706693" levels="NEIGHBORHOOD">
    <business kind="Rent" />
    <business kind="Sale" />
    <business kind="Development" />
  </item>
  <item neighborhood="Vila Gumercindo" zone="Zona Sul" city="São Paulo" state="São Paulo" location_id="BR&gt;Sao Paulo&gt;NULL&gt;Sao Paulo&gt;Zona Sul&gt;Vila Gumercindo" latitude="-23.604304" longitude="-46.621067" levels="NEIGHBORHOOD">
    <business kind="Rent" />
    <business kind="Sale" />
    <business kind="Development" />
  </item>
  <item neighborhood="Cidade Monções" zone="Zona Sul" city="São Paulo" state="São Paulo" location_id="BR&gt;Sao Paulo&gt;NULL&gt;Sao Paulo&gt;Zona Sul&gt;Cidade Moncoes" latitude="-23.608765" longitude="-46.69589" levels="NEIGHBORHOOD">
    <business kind="Rent" />
    <business kind="Sale" />
    <business kind="Development" />
  </item>
  <item neighborhood="Água Fria" zone="Zona Norte" city="São Paulo" state="São Paulo" location_id="BR&gt;Sao Paulo&gt;NULL&gt;Sao Paulo&gt;Zona Norte&gt;Agua Fria" latitude="-23.483859" longitude="-46.618616" levels="NEIGHBORHOOD">
    <business kind="Rent" />
    <business kind="Sale" />
    <business kind="Development" />
  </item>
  <item neighborhood="Jardim Vila Mariana" zone="bairros" city="São Paulo" state="São Paulo" location_id="BR&gt;Sao Paulo&gt;NULL&gt;Sao Paulo&gt;Barrios&gt;Jardim Vila Mariana" latitude="-23.591682" longitude="-46.625891" levels="NEIGHBORHOOD">
    <business kind="Rent" />
    <business kind="Sale" />
    <business kind="Development" />
  </item>
  <item neighborhood="Vila Monumento" zone="Zona Sul" city="São Paulo" state="São Paulo" location_id="BR&gt;Sao Paulo&gt;NULL&gt;Sao Paulo&gt;Zona Sul&gt;Vila Monumento" latitude="-23.574508" longitude="-46.614132" levels="NEIGHBORHOOD">
    <business kind="Rent" />
    <business kind="Sale" />
    <business kind="Development" />
  </item>
  <item neighborhood="Água Rasa" zone="Zona Leste" city="São Paulo" state="São Paulo" location_id="BR&gt;Sao Paulo&gt;NULL&gt;Sao Paulo&gt;Zona Leste&gt;Agua Rasa" latitude="-23.507086" longitude="-46.507237" levels="NEIGHBORHOOD">
    <business kind="Rent" />
    <business kind="Sale" />
    <business kind="Development" />
  </item>
  <item neighborhood="Santa Teresinha" zone="Zona Norte" city="São Paulo" state="São Paulo" location_id="BR&gt;Sao Paulo&gt;NULL&gt;Sao Paulo&gt;Zona Norte&gt;Santa Teresinha" latitude="-23.492179" longitude="-46.636143" levels="NEIGHBORHOOD">
    <business kind="Rent" />
    <business kind="Sale" />
    <business kind="Development" />
  </item>
  <item neighborhood="Vila Esperança" zone="Zona Leste" city="São Paulo" state="São Paulo" location_id="BR&gt;Sao Paulo&gt;NULL&gt;Sao Paulo&gt;Zona Leste&gt;Vila Esperanca" latitude="-23.525988" longitude="-46.526131" levels="NEIGHBORHOOD">
    <business kind="Rent" />
    <business kind="Sale" />
    <business kind="Development" />
  </item>
  <item neighborhood="Vila Moraes" zone="Zona Sul" city="São Paulo" state="São Paulo" location_id="BR&gt;Sao Paulo&gt;NULL&gt;Sao Paulo&gt;Zona Sul&gt;Vila Moraes" latitude="-23.626941" longitude="-46.606457" levels="NEIGHBORHOOD">
    <business kind="Rent" />
    <business kind="Sale" />
    <business kind="Development" />
  </item>
  <item neighborhood="Vila Buarque" zone="Centro" city="São Paulo" state="São Paulo" location_id="BR&gt;Sao Paulo&gt;NULL&gt;Sao Paulo&gt;Centro&gt;Vila Buarque" latitude="-23.541705" longitude="-46.650918" levels="NEIGHBORHOOD">
    <business kind="Rent" />
    <business kind="Sale" />
    <business kind="Development" />
  </item>
  <item neighborhood="Vila Bertioga" zone="Zona Leste" city="São Paulo" state="São Paulo" location_id="BR&gt;Sao Paulo&gt;NULL&gt;Sao Paulo&gt;Zona Leste&gt;Vila Bertioga" latitude="-23.561937" longitude="-46.57972" levels="NEIGHBORHOOD">
    <business kind="Rent" />
    <business kind="Sale" />
    <business kind="Development" />
  </item>
  <item neighborhood="Vila Ré" zone="Zona Leste" city="São Paulo" state="São Paulo" location_id="BR&gt;Sao Paulo&gt;NULL&gt;Sao Paulo&gt;Zona Leste&gt;Vila Re" latitude="-23.528785" longitude="-46.498608" levels="NEIGHBORHOOD">
    <business kind="Rent" />
    <business kind="Sale" />
    <business kind="Development" />
  </item>
  <item neighborhood="Vila Santa Catarina" zone="Zona Sul" city="São Paulo" state="São Paulo" location_id="BR&gt;Sao Paulo&gt;NULL&gt;Sao Paulo&gt;Zona Sul&gt;Vila Santa Catarina" latitude="-23.655209" longitude="-46.638636" levels="NEIGHBORHOOD">
    <business kind="Rent" />
    <business kind="Sale" />
    <business kind="Development" />
  </item>
  <item neighborhood="Vila Constança" zone="bairros" city="São Paulo" state="São Paulo" location_id="BR&gt;Sao Paulo&gt;NULL&gt;Sao Paulo&gt;Barrios&gt;Vila Constanca" latitude="-23.471259" longitude="-46.594544" levels="NEIGHBORHOOD">
    <business kind="Rent" />
    <business kind="Sale" />
    <business kind="Development" />
  </item>
  <item neighborhood="Artur Alvim" zone="Zona Leste" city="São Paulo" state="São Paulo" location_id="BR&gt;Sao Paulo&gt;NULL&gt;Sao Paulo&gt;Zona Leste&gt;Artur Alvim" latitude="-23.535925" longitude="-46.478971" levels="NEIGHBORHOOD">
    <business kind="Rent" />
    <business kind="Sale" />
    <business kind="Development" />
  </item>
  <item neighborhood="Sumarezinho" zone="Zona Oeste" city="São Paulo" state="São Paulo" location_id="BR&gt;Sao Paulo&gt;NULL&gt;Sao Paulo&gt;Zona Oeste&gt;Sumarezinho" latitude="-23.548709" longitude="-46.692871" levels="NEIGHBORHOOD">
    <business kind="Rent" />
    <business kind="Sale" />
    <business kind="Development" />
  </item>
  <item neighborhood="Belém" zone="Zona Leste" city="São Paulo" state="São Paulo" location_id="BR&gt;Sao Paulo&gt;NULL&gt;Sao Paulo&gt;Zona Leste&gt;Belem" latitude="-23.53689" longitude="-46.591617" levels="NEIGHBORHOOD">
    <business kind="Rent" />
    <business kind="Sale" />
    <business kind="Development" />
  </item>
  <item neighborhood="Vila Ipojuca" zone="Zona Oeste" city="São Paulo" state="São Paulo" location_id="BR&gt;Sao Paulo&gt;NULL&gt;Sao Paulo&gt;Zona Oeste&gt;Vila Ipojuca" latitude="-23.533414" longitude="-46.705553" levels="NEIGHBORHOOD">
    <business kind="Rent" />
    <business kind="Sale" />
    <business kind="Development" />
  </item>
  <item neighborhood="Vila Nova Mazzei" zone="Zona Norte" city="São Paulo" state="São Paulo" location_id="BR&gt;Sao Paulo&gt;NULL&gt;Sao Paulo&gt;Zona Norte&gt;Vila Nova Mazzei" latitude="-23.465862" longitude="-46.597185" levels="NEIGHBORHOOD">
    <business kind="Rent" />
    <business kind="Sale" />
    <business kind="Development" />
  </item>
  <item neighborhood="Parque São Domingos" zone="Zona Oeste" city="São Paulo" state="São Paulo" location_id="BR&gt;Sao Paulo&gt;NULL&gt;Sao Paulo&gt;Zona Oeste&gt;Parque Sao Domingos" latitude="-23.501969" longitude="-46.736263" levels="NEIGHBORHOOD">
    <business kind="Rent" />
    <business kind="Sale" />
    <business kind="Development" />
  </item>
  <item neighborhood="Jardim da Saude" zone="Zona Sul" city="São Paulo" state="São Paulo" location_id="BR&gt;Sao Paulo&gt;NULL&gt;Sao Paulo&gt;Zona Sul&gt;Jardim da Saude" latitude="-23.616925" longitude="-46.616243" levels="NEIGHBORHOOD">
    <business kind="Rent" />
    <business kind="Sale" />
    <business kind="Development" />
  </item>
  <item neighborhood="Vila Cordeiro" zone="Zona Oeste" city="São Paulo" state="São Paulo" location_id="BR&gt;Sao Paulo&gt;NULL&gt;Sao Paulo&gt;Zona Oeste&gt;Vila Cordeiro" latitude="-23.617466" longitude="-46.693475" levels="NEIGHBORHOOD">
    <business kind="Rent" />
    <business kind="Sale" />
    <business kind="Development" />
  </item>
  <item neighborhood="Vila Guilhermina" zone="Zona Leste" city="São Paulo" state="São Paulo" location_id="BR&gt;Sao Paulo&gt;NULL&gt;Sao Paulo&gt;Zona Leste&gt;Vila Guilhermina" latitude="-23.532582" longitude="-46.513855" levels="NEIGHBORHOOD">
    <business kind="Rent" />
    <business kind="Sale" />
    <business kind="Development" />
  </item>
  <item neighborhood="Vila Moinho Velho" zone="Zona Sul" city="São Paulo" state="São Paulo" location_id="BR&gt;Sao Paulo&gt;NULL&gt;Sao Paulo&gt;Zona Sul&gt;Vila Moinho Velho" latitude="-23.61036" longitude="-46.604187" levels="NEIGHBORHOOD">
    <business kind="Rent" />
    <business kind="Sale" />
    <business kind="Development" />
  </item>
  <item neighborhood="Vila Gomes Cardim" zone="Zona Leste" city="São Paulo" state="São Paulo" location_id="BR&gt;Sao Paulo&gt;NULL&gt;Sao Paulo&gt;Zona Leste&gt;Vila Gomes Cardim" latitude="-23.535245" longitude="-46.575463" levels="NEIGHBORHOOD">
    <business kind="Rent" />
    <business kind="Sale" />
    <business kind="Development" />
  </item>
  <item neighborhood="Parque da Mooca" zone="Zona Leste" city="São Paulo" state="São Paulo" location_id="BR&gt;Sao Paulo&gt;NULL&gt;Sao Paulo&gt;Zona Leste&gt;Parque da Mooca" latitude="-23.585499" longitude="-46.590024" levels="NEIGHBORHOOD">
    <business kind="Rent" />
    <business kind="Sale" />
    <business kind="Development" />
  </item>
  <item neighborhood="Parque dos Príncipes" zone="Zona Oeste" city="São Paulo" state="São Paulo" location_id="BR&gt;Sao Paulo&gt;NULL&gt;Sao Paulo&gt;Zona Oeste&gt;Parque dos Principes" latitude="-23.573021" longitude="-46.769936" levels="NEIGHBORHOOD">
    <business kind="Rent" />
    <business kind="Sale" />
    <business kind="Development" />
  </item>
  <item neighborhood="Jardim das Vertentes" zone="Zona Oeste" city="São Paulo" state="São Paulo" location_id="BR&gt;Sao Paulo&gt;NULL&gt;Sao Paulo&gt;Zona Oeste&gt;Jardim das Vertentes" latitude="-23.590751" longitude="-46.741169" levels="NEIGHBORHOOD">
    <business kind="Rent" />
    <business kind="Sale" />
    <business kind="Development" />
  </item>
  <item neighborhood="Chácara Belenzinho" zone="Zona Leste" city="São Paulo" state="São Paulo" location_id="BR&gt;Sao Paulo&gt;NULL&gt;Sao Paulo&gt;Zona Leste&gt;Chacara Belenzinho" latitude="-23.576151" longitude="-46.535824" levels="NEIGHBORHOOD">
    <business kind="Rent" />
    <business kind="Sale" />
    <business kind="Development" />
  </item>
  <item neighborhood="Vila Anastácio" zone="Zona Oeste" city="São Paulo" state="São Paulo" location_id="BR&gt;Sao Paulo&gt;NULL&gt;Sao Paulo&gt;Zona Oeste&gt;Vila Anastacio" latitude="-23.515265" longitude="-46.720175" levels="NEIGHBORHOOD">
    <business kind="Rent" />
    <business kind="Sale" />
    <business kind="Development" />
  </item>
  <item neighborhood="Vila São Francisco" zone="Zona Oeste" city="São Paulo" state="São Paulo" location_id="BR&gt;Sao Paulo&gt;NULL&gt;Sao Paulo&gt;Zona Oeste&gt;Vila Sao Francisco" latitude="-23.521604" longitude="-46.494215" levels="NEIGHBORHOOD">
    <business kind="Rent" />
    <business kind="Sale" />
    <business kind="Development" />
  </item>
  <item neighborhood="Jardim Íris" zone="Zona Oeste" city="São Paulo" state="São Paulo" location_id="BR&gt;Sao Paulo&gt;NULL&gt;Sao Paulo&gt;Zona Oeste&gt;Jardim Iris" latitude="-23.499973" longitude="-46.722585" levels="NEIGHBORHOOD">
    <business kind="Rent" />
    <business kind="Sale" />
    <business kind="Development" />
  </item>
  <item neighborhood="Vila Gustavo" zone="Zona Norte" city="São Paulo" state="São Paulo" location_id="BR&gt;Sao Paulo&gt;NULL&gt;Sao Paulo&gt;Zona Norte&gt;Vila Gustavo" latitude="-23.482472" longitude="-46.597484" levels="NEIGHBORHOOD">
    <business kind="Rent" />
    <business kind="Sale" />
    <business kind="Development" />
  </item>
  <item neighborhood="Parque São Lucas" zone="Zona Leste" city="São Paulo" state="São Paulo" location_id="BR&gt;Sao Paulo&gt;NULL&gt;Sao Paulo&gt;Zona Leste&gt;Parque Sao Lucas" latitude="-23.597421" longitude="-46.546356" levels="NEIGHBORHOOD">
    <business kind="Rent" />
    <business kind="Sale" />
    <business kind="Development" />
  </item>
  <item neighborhood="Vila Alpina" zone="Zona Leste" city="São Paulo" state="São Paulo" location_id="BR&gt;Sao Paulo&gt;NULL&gt;Sao Paulo&gt;Zona Leste&gt;VILA ALPINA" latitude="-23.597359" longitude="-46.559463" levels="NEIGHBORHOOD">
    <business kind="Rent" />
    <business kind="Sale" />
    <business kind="Development" />
  </item>
  <item neighborhood="Vila Granada" zone="Zona Leste" city="São Paulo" state="São Paulo" location_id="BR&gt;Sao Paulo&gt;NULL&gt;Sao Paulo&gt;Zona Leste&gt;Vila Granada" latitude="-23.522292" longitude="-46.515059" levels="NEIGHBORHOOD">
    <business kind="Rent" />
    <business kind="Sale" />
    <business kind="Development" />
  </item>
  <item neighborhood="Jaçanã" zone="Zona Norte" city="São Paulo" state="São Paulo" location_id="BR&gt;Sao Paulo&gt;NULL&gt;Sao Paulo&gt;Zona Norte&gt;Jacana" latitude="-23.460067" longitude="-46.589723" levels="NEIGHBORHOOD">
    <business kind="Rent" />
    <business kind="Sale" />
    <business kind="Development" />
  </item>
  <item neighborhood="Vila Bela" zone="Zona Leste" city="São Paulo" state="São Paulo" location_id="BR&gt;Sao Paulo&gt;NULL&gt;Sao Paulo&gt;Zona Leste&gt;Vila Bela" latitude="-23.616503" longitude="-46.451426" levels="NEIGHBORHOOD">
    <business kind="Rent" />
    <business kind="Sale" />
    <business kind="Development" />
  </item>
  <item neighborhood="Parque Novo Mundo" zone="Zona Norte" city="São Paulo" state="São Paulo" location_id="BR&gt;Sao Paulo&gt;NULL&gt;Sao Paulo&gt;Zona Norte&gt;Parque Novo Mundo" latitude="-23.517397" longitude="-46.567929" levels="NEIGHBORHOOD">
    <business kind="Rent" />
    <business kind="Sale" />
    <business kind="Development" />
  </item>
  <item neighborhood="Vila Firmiano Pinto" zone="Zona Sul" city="São Paulo" state="São Paulo" location_id="BR&gt;Sao Paulo&gt;NULL&gt;Sao Paulo&gt;Zona Sul&gt;Vila Firmiano Pinto" latitude="-23.604304" longitude="-46.621067" levels="NEIGHBORHOOD">
    <business kind="Rent" />
    <business kind="Sale" />
    <business kind="Development" />
  </item>
  <item neighborhood="Jardim  Independencia" zone="Zona Leste" city="São Paulo" state="São Paulo" location_id="BR&gt;Sao Paulo&gt;NULL&gt;Sao Paulo&gt;Zona Leste&gt;Jardim  Independencia" latitude="-23.689791" longitude="-46.785342" levels="NEIGHBORHOOD">
    <business kind="Rent" />
    <business kind="Sale" />
    <business kind="Development" />
  </item>
  <item neighborhood="Jardim Aeroporto" zone="Zona Sul" city="São Paulo" state="São Paulo" location_id="BR&gt;Sao Paulo&gt;NULL&gt;Sao Paulo&gt;Zona Sul&gt;Jardim Aeroporto" latitude="-23.633657" longitude="-46.664499" levels="NEIGHBORHOOD">
    <business kind="Rent" />
    <business kind="Sale" />
    <business kind="Development" />
  </item>
  <item neighborhood="Vila Pauliceia" zone="Zona Norte" city="São Paulo" state="São Paulo" location_id="BR&gt;Sao Paulo&gt;NULL&gt;Sao Paulo&gt;Zona Norte&gt;Vila Pauliceia" latitude="-23.488882" longitude="-46.604187" levels="NEIGHBORHOOD">
    <business kind="Rent" />
    <business kind="Sale" />
    <business kind="Development" />
  </item>
  <item neighborhood="Jardim da Glória" zone="Zona Sul" city="São Paulo" state="São Paulo" location_id="BR&gt;Sao Paulo&gt;NULL&gt;Sao Paulo&gt;Zona Sul&gt;Jardim da Gloria" latitude="-23.580103" longitude="-46.621606" levels="NEIGHBORHOOD">
    <business kind="Rent" />
    <business kind="Sale" />
    <business kind="Development" />
  </item>
  <item neighborhood="Jardim Leonor" zone="Zona Sul" city="São Paulo" state="São Paulo" location_id="BR&gt;Sao Paulo&gt;NULL&gt;Sao Paulo&gt;Zona Sul&gt;Jardim Leonor" latitude="-23.598051" longitude="-46.719873" levels="NEIGHBORHOOD">
    <business kind="Rent" />
    <business kind="Sale" />
    <business kind="Development" />
  </item>
  <item neighborhood="Vila Albertina" zone="Zona Norte" city="São Paulo" state="São Paulo" location_id="BR&gt;Sao Paulo&gt;NULL&gt;Sao Paulo&gt;Zona Norte&gt;Vila Albertina" latitude="-23.502188" longitude="-46.691059" levels="NEIGHBORHOOD">
    <business kind="Rent" />
    <business kind="Sale" />
    <business kind="Development" />
  </item>
  <item neighborhood="Jardim Caravelas" zone="Zona Sul" city="São Paulo" state="São Paulo" location_id="BR&gt;Sao Paulo&gt;NULL&gt;Sao Paulo&gt;Zona Sul&gt;Jardim Caravelas" latitude="-23.639297" longitude="-46.715217" levels="NEIGHBORHOOD">
    <business kind="Rent" />
    <business kind="Sale" />
    <business kind="Development" />
  </item>
  <item neighborhood="Jardim Vila Formosa" zone="Zona Leste" city="São Paulo" state="São Paulo" location_id="BR&gt;Sao Paulo&gt;NULL&gt;Sao Paulo&gt;Zona Leste&gt;Jardim Vila Formosa" latitude="-23.566891" longitude="-46.522791" levels="NEIGHBORHOOD">
    <business kind="Rent" />
    <business kind="Sale" />
    <business kind="Development" />
  </item>
  <item neighborhood="Jardim Japão" zone="Zona Norte" city="São Paulo" state="São Paulo" location_id="BR&gt;Sao Paulo&gt;NULL&gt;Sao Paulo&gt;Zona Norte&gt;Jardim Japao" latitude="-23.501857" longitude="-46.57671" levels="NEIGHBORHOOD">
    <business kind="Rent" />
    <business kind="Sale" />
    <business kind="Development" />
  </item>
  <item neighborhood="Vila Parque Jabaquara" zone="Zona Sul" city="São Paulo" state="São Paulo" location_id="BR&gt;Sao Paulo&gt;NULL&gt;Sao Paulo&gt;Zona Sul&gt;Vila Parque Jabaquara" latitude="-23.638297" longitude="-46.657258" levels="NEIGHBORHOOD">
    <business kind="Rent" />
    <business kind="Sale" />
    <business kind="Development" />
  </item>
  <item neighborhood="Campo Limpo" zone="Zona Sul" city="São Paulo" state="São Paulo" location_id="BR&gt;Sao Paulo&gt;NULL&gt;Sao Paulo&gt;Zona Sul&gt;Campo Limpo" latitude="-23.652078" longitude="-46.765987" levels="NEIGHBORHOOD">
    <business kind="Rent" />
    <business kind="Sale" />
    <business kind="Development" />
  </item>
  <item neighborhood="Ibirapuera" zone="Zona Sul" city="São Paulo" state="São Paulo" location_id="BR&gt;Sao Paulo&gt;NULL&gt;Sao Paulo&gt;Zona Sul&gt;Ibirapuera" latitude="-23.598316" longitude="-46.643963" levels="NEIGHBORHOOD">
    <business kind="Rent" />
    <business kind="Sale" />
    <business kind="Development" />
  </item>
  <item neighborhood="Vila Congonhas" zone="Zona Sul" city="São Paulo" state="São Paulo" location_id="BR&gt;Sao Paulo&gt;NULL&gt;Sao Paulo&gt;Zona Sul&gt;Vila Congonhas" latitude="-23.627629" longitude="-46.661799" levels="NEIGHBORHOOD">
    <business kind="Rent" />
    <business kind="Sale" />
    <business kind="Development" />
  </item>
  <item neighborhood="Jardim Santa Terezinha" zone="Zona Leste" city="São Paulo" state="São Paulo" location_id="BR&gt;Sao Paulo&gt;NULL&gt;Sao Paulo&gt;Zona Leste&gt;Jardim Santa Terezinha" latitude="-23.492179" longitude="-46.636143" levels="NEIGHBORHOOD">
    <business kind="Rent" />
    <business kind="Sale" />
    <business kind="Development" />
  </item>
  <item neighborhood="Vila Dom Pedro I" zone="Zona Sul" city="São Paulo" state="São Paulo" location_id="BR&gt;Sao Paulo&gt;NULL&gt;Sao Paulo&gt;Zona Sul&gt;Vila Dom Pedro I" latitude="-23.599413" longitude="-46.613832" levels="NEIGHBORHOOD">
    <business kind="Rent" />
    <business kind="Sale" />
    <business kind="Development" />
  </item>
  <item neighborhood="Parque São Jorge" zone="Zona Leste" city="São Paulo" state="São Paulo" location_id="BR&gt;Sao Paulo&gt;NULL&gt;Sao Paulo&gt;Zona Leste&gt;Parque Sao Jorge" latitude="-23.531143" longitude="-46.568034" levels="NEIGHBORHOOD">
    <business kind="Rent" />
    <business kind="Sale" />
    <business kind="Development" />
  </item>
  <item neighborhood="Vila Sofia" zone="Zona Sul" city="São Paulo" state="São Paulo" location_id="BR&gt;Sao Paulo&gt;NULL&gt;Sao Paulo&gt;Zona Sul&gt;Vila Sofia" latitude="-23.659547" longitude="-46.691059" levels="NEIGHBORHOOD">
    <business kind="Rent" />
    <business kind="Sale" />
    <business kind="Development" />
  </item>
  <item neighborhood="Cursino" zone="Zona Sul" city="São Paulo" state="São Paulo" location_id="BR&gt;Sao Paulo&gt;NULL&gt;Sao Paulo&gt;Zona Sul&gt;Cursino" latitude="-23.65491" longitude="-46.609009" levels="NEIGHBORHOOD">
    <business kind="Rent" />
    <business kind="Sale" />
    <business kind="Development" />
  </item>
  <item neighborhood="Vila Carmosina" zone="Zona Leste" city="São Paulo" state="São Paulo" location_id="BR&gt;Sao Paulo&gt;NULL&gt;Sao Paulo&gt;Zona Leste&gt;Vila Carmosina" latitude="-23.567232" longitude="-46.47837" levels="NEIGHBORHOOD">
    <business kind="Rent" />
    <business kind="Sale" />
    <business kind="Development" />
  </item>
  <item neighborhood="Chora Menino" zone="Zona Norte" city="São Paulo" state="São Paulo" location_id="BR&gt;Sao Paulo&gt;NULL&gt;Sao Paulo&gt;Zona Norte&gt;Chora Menino" latitude="-23.486396" longitude="-46.647001" levels="NEIGHBORHOOD">
    <business kind="Rent" />
    <business kind="Sale" />
    <business kind="Development" />
  </item>
  <item neighborhood="Vila Alexandria" zone="Zona Sul" city="São Paulo" state="São Paulo" location_id="BR&gt;Sao Paulo&gt;NULL&gt;Sao Paulo&gt;Zona Sul&gt;Vila Alexandria" latitude="-23.642354" longitude="-46.662085" levels="NEIGHBORHOOD">
    <business kind="Rent" />
    <business kind="Sale" />
    <business kind="Development" />
  </item>
  <item neighborhood="Vila Brasílio Machado" zone="Zona Sul" city="São Paulo" state="São Paulo" location_id="BR&gt;Sao Paulo&gt;NULL&gt;Sao Paulo&gt;Zona Sul&gt;Vila Brasilio Machado" latitude="-23.61052" longitude="-46.613229" levels="NEIGHBORHOOD">
    <business kind="Rent" />
    <business kind="Sale" />
    <business kind="Development" />
  </item>
  <item neighborhood="Cidade Líder" zone="Zona Leste" city="São Paulo" state="São Paulo" location_id="BR&gt;Sao Paulo&gt;NULL&gt;Sao Paulo&gt;Zona Leste&gt;Cidade Lider" latitude="-23.557835" longitude="-46.476182" levels="NEIGHBORHOOD">
    <business kind="Rent" />
    <business kind="Sale" />
    <business kind="Development" />
  </item>
  <item neighborhood="Fazenda Morumbi" zone="Zona Sul" city="São Paulo" state="São Paulo" location_id="BR&gt;Sao Paulo&gt;NULL&gt;Sao Paulo&gt;Zona Sul&gt;Fazenda Morumbi" latitude="-23.616283" longitude="-46.717634" levels="NEIGHBORHOOD">
    <business kind="Rent" />
    <business kind="Sale" />
    <business kind="Development" />
  </item>
  <item neighborhood="Rio Pequeno" zone="Zona Oeste" city="São Paulo" state="São Paulo" location_id="BR&gt;Sao Paulo&gt;NULL&gt;Sao Paulo&gt;Zona Oeste&gt;Rio Pequeno" latitude="-23.564488" longitude="-46.753935" levels="NEIGHBORHOOD">
    <business kind="Rent" />
    <business kind="Sale" />
    <business kind="Development" />
  </item>
  <item neighborhood="Quinta da Paineira" zone="Zona Leste" city="São Paulo" state="São Paulo" location_id="BR&gt;Sao Paulo&gt;NULL&gt;Sao Paulo&gt;Zona Leste&gt;Quinta da Paineira" latitude="-23.587833" longitude="-46.587312" levels="NEIGHBORHOOD">
    <business kind="Rent" />
    <business kind="Sale" />
    <business kind="Development" />
  </item>
  <item neighborhood="Jardim França" zone="Zona Norte" city="São Paulo" state="São Paulo" location_id="BR&gt;Sao Paulo&gt;NULL&gt;Sao Paulo&gt;Zona Norte&gt;Jardim Franca" latitude="-23.476373" longitude="-46.616243" levels="NEIGHBORHOOD">
    <business kind="Rent" />
    <business kind="Sale" />
    <business kind="Development" />
  </item>
  <item neighborhood="Vila Mangalot" zone="Zona Norte" city="São Paulo" state="São Paulo" location_id="BR&gt;Sao Paulo&gt;NULL&gt;Sao Paulo&gt;Zona Norte&gt;Vila Mangalot" latitude="-23.500374" longitude="-46.745111" levels="NEIGHBORHOOD">
    <business kind="Rent" />
    <business kind="Sale" />
    <business kind="Development" />
  </item>
  <item neighborhood="Cangaíba" zone="Zona Leste" city="São Paulo" state="São Paulo" location_id="BR&gt;Sao Paulo&gt;NULL&gt;Sao Paulo&gt;Zona Leste&gt;Cangaiba" latitude="-23.500751" longitude="-46.507839" levels="NEIGHBORHOOD">
    <business kind="Rent" />
    <business kind="Sale" />
    <business kind="Development" />
  </item>
  <item neighborhood="Jardim Ampliação" zone="Zona Sul" city="São Paulo" state="São Paulo" location_id="BR&gt;Sao Paulo&gt;NULL&gt;Sao Paulo&gt;Zona Sul&gt;Jardim Ampliacao" latitude="-23.627616" longitude="-46.729718" levels="NEIGHBORHOOD">
    <business kind="Rent" />
    <business kind="Sale" />
    <business kind="Development" />
  </item>
  <item neighborhood="Parque Rebouças" zone="Zona Sul" city="São Paulo" state="São Paulo" location_id="BR&gt;Sao Paulo&gt;NULL&gt;Sao Paulo&gt;Zona Sul&gt;Parque Reboucas" latitude="-23.627947" longitude="-46.749663" levels="NEIGHBORHOOD">
    <business kind="Rent" />
    <business kind="Sale" />
    <business kind="Development" />
  </item>
  <item neighborhood="Socorro" zone="Zona Sul" city="São Paulo" state="São Paulo" location_id="BR&gt;Sao Paulo&gt;NULL&gt;Sao Paulo&gt;Zona Sul&gt;Socorro" latitude="-23.669448" longitude="-46.718757" levels="NEIGHBORHOOD">
    <business kind="Rent" />
    <business kind="Sale" />
    <business kind="Development" />
  </item>
  <item neighborhood="Carandiru" zone="Zona Norte" city="São Paulo" state="São Paulo" location_id="BR&gt;Sao Paulo&gt;NULL&gt;Sao Paulo&gt;Zona Norte&gt;Carandiru" latitude="-23.503722" longitude="-46.615177" levels="NEIGHBORHOOD">
    <business kind="Rent" />
    <business kind="Sale" />
    <business kind="Development" />
  </item>
  <item neighborhood="Jardim Consórcio" zone="Zona Sul" city="São Paulo" state="São Paulo" location_id="BR&gt;Sao Paulo&gt;NULL&gt;Sao Paulo&gt;Zona Sul&gt;Jardim Consorcio" latitude="-23.669906" longitude="-46.677128" levels="NEIGHBORHOOD">
    <business kind="Rent" />
    <business kind="Sale" />
    <business kind="Development" />
  </item>
  <item neighborhood="Vila Irmãos Arnoni" zone="Zona Norte" city="São Paulo" state="São Paulo" location_id="BR&gt;Sao Paulo&gt;NULL&gt;Sao Paulo&gt;Zona Norte&gt;VILA IRMAOS ARNONI" latitude="-23.502188" longitude="-46.691059" levels="NEIGHBORHOOD">
    <business kind="Rent" />
    <business kind="Sale" />
    <business kind="Development" />
  </item>
  <item neighborhood="Vila Nivi" zone="Zona Norte" city="São Paulo" state="São Paulo" location_id="BR&gt;Sao Paulo&gt;NULL&gt;Sao Paulo&gt;Zona Norte&gt;Vila Nivi" latitude="-23.477571" longitude="-46.592133" levels="NEIGHBORHOOD">
    <business kind="Rent" />
    <business kind="Sale" />
    <business kind="Development" />
  </item>
  <item neighborhood="Vila Isolina Mazzei" zone="Zona Norte" city="São Paulo" state="São Paulo" location_id="BR&gt;Sao Paulo&gt;NULL&gt;Sao Paulo&gt;Zona Norte&gt;Vila Isolina Mazzei" latitude="-23.50234" longitude="-46.601776" levels="NEIGHBORHOOD">
    <business kind="Rent" />
    <business kind="Sale" />
    <business kind="Development" />
  </item>
  <item neighborhood="Jardim Oriental" zone="Zona Sul" city="São Paulo" state="São Paulo" location_id="BR&gt;Sao Paulo&gt;NULL&gt;Sao Paulo&gt;Zona Sul&gt;Jardim Oriental" latitude="-23.645911" longitude="-46.647305" levels="NEIGHBORHOOD">
    <business kind="Rent" />
    <business kind="Sale" />
    <business kind="Development" />
  </item>
  <item neighborhood="Vila Cruzeiro" zone="Zona Sul" city="São Paulo" state="São Paulo" location_id="BR&gt;Sao Paulo&gt;NULL&gt;Sao Paulo&gt;Zona Sul&gt;Vila Cruzeiro" latitude="-23.642172" longitude="-46.711732" levels="NEIGHBORHOOD">
    <business kind="Rent" />
    <business kind="Sale" />
    <business kind="Development" />
  </item>
  <item neighborhood="Quarta Parada" zone="Zona Leste" city="São Paulo" state="São Paulo" location_id="BR&gt;Sao Paulo&gt;NULL&gt;Sao Paulo&gt;Zona Leste&gt;Quarta Parada" latitude="-23.546281" longitude="-46.584617" levels="NEIGHBORHOOD">
    <business kind="Rent" />
    <business kind="Sale" />
    <business kind="Development" />
  </item>
  <item neighborhood="Jardim Celeste" zone="Zona Sul" city="São Paulo" state="São Paulo" location_id="BR&gt;Sao Paulo&gt;NULL&gt;Sao Paulo&gt;Zona Sul&gt;Jardim Celeste" latitude="-23.626941" longitude="-46.606457" levels="NEIGHBORHOOD">
    <business kind="Rent" />
    <business kind="Sale" />
    <business kind="Development" />
  </item>
  <item neighborhood="Vila das Mercês" zone="Zona Sul" city="São Paulo" state="São Paulo" location_id="BR&gt;Sao Paulo&gt;NULL&gt;Sao Paulo&gt;Zona Sul&gt;Vila das Merces" latitude="-23.620776" longitude="-46.608258" levels="NEIGHBORHOOD">
    <business kind="Rent" />
    <business kind="Sale" />
    <business kind="Development" />
  </item>
  <item neighborhood="Brasilândia" zone="Zona Norte" city="São Paulo" state="São Paulo" location_id="BR&gt;Sao Paulo&gt;NULL&gt;Sao Paulo&gt;Zona Norte&gt;Brasilandia" latitude="-23.470333" longitude="-46.689978" levels="NEIGHBORHOOD">
    <business kind="Rent" />
    <business kind="Sale" />
    <business kind="Development" />
  </item>
  <item neighborhood="Jardim Previdência" zone="Zona Oeste" city="São Paulo" state="São Paulo" location_id="BR&gt;Sao Paulo&gt;NULL&gt;Sao Paulo&gt;Zona Oeste&gt;Jardim Previdencia" latitude="-23.620853" longitude="-46.613832" levels="NEIGHBORHOOD">
    <business kind="Rent" />
    <business kind="Sale" />
    <business kind="Development" />
  </item>
  <item neighborhood="Aricanduva" zone="Zona Leste" city="São Paulo" state="São Paulo" location_id="BR&gt;Sao Paulo&gt;NULL&gt;Sao Paulo&gt;Zona Leste&gt;Aricanduva" latitude="-23.566891" longitude="-46.522791" levels="NEIGHBORHOOD">
    <business kind="Rent" />
    <business kind="Sale" />
    <business kind="Development" />
  </item>
  <item neighborhood="São João Climaco" zone="Zona Sul" city="São Paulo" state="São Paulo" location_id="BR&gt;Sao Paulo&gt;NULL&gt;Sao Paulo&gt;Zona Sul&gt;Sao Joao Climaco" latitude="-23.624199" longitude="-46.591569" levels="NEIGHBORHOOD">
    <business kind="Rent" />
    <business kind="Sale" />
    <business kind="Development" />
  </item>
  <item neighborhood="Vila Uberabinha" zone="Zona Sul" city="São Paulo" state="São Paulo" location_id="BR&gt;Sao Paulo&gt;NULL&gt;Sao Paulo&gt;Zona Sul&gt;Vila Uberabinha" latitude="-23.599007" longitude="-46.668074" levels="NEIGHBORHOOD">
    <business kind="Rent" />
    <business kind="Sale" />
    <business kind="Development" />
  </item>
  <item neighborhood="Parque Peruche" zone="Zona Norte" city="São Paulo" state="São Paulo" location_id="BR&gt;Sao Paulo&gt;NULL&gt;Sao Paulo&gt;Zona Norte&gt;Parque Peruche" latitude="-23.497688" longitude="-46.654426" levels="NEIGHBORHOOD">
    <business kind="Rent" />
    <business kind="Sale" />
    <business kind="Development" />
  </item>
  <item neighborhood="Jardim Londrina" zone="Zona Sul" city="São Paulo" state="São Paulo" location_id="BR&gt;Sao Paulo&gt;NULL&gt;Sao Paulo&gt;Zona Sul&gt;Jardim Londrina" latitude="-23.605164" longitude="-46.742409" levels="NEIGHBORHOOD">
    <business kind="Rent" />
    <business kind="Sale" />
    <business kind="Development" />
  </item>
  <item neighborhood="Vila Vera" zone="Zona Sul" city="São Paulo" state="São Paulo" location_id="BR&gt;Sao Paulo&gt;NULL&gt;Sao Paulo&gt;Zona Sul&gt;Vila Vera" latitude="-23.620693" longitude="-46.604789" levels="NEIGHBORHOOD">
    <business kind="Rent" />
    <business kind="Sale" />
    <business kind="Development" />
  </item>
  <item neighborhood="Vila Dom Pedro II" zone="Zona Norte" city="São Paulo" state="São Paulo" location_id="BR&gt;Sao Paulo&gt;NULL&gt;Sao Paulo&gt;Zona Norte&gt;Vila Dom Pedro II" latitude="-23.488882" longitude="-46.604187" levels="NEIGHBORHOOD">
    <business kind="Rent" />
    <business kind="Sale" />
    <business kind="Development" />
  </item>
  <item neighborhood="Vila Butantã" zone="Zona Oeste" city="São Paulo" state="São Paulo" location_id="BR&gt;Sao Paulo&gt;NULL&gt;Sao Paulo&gt;Zona Oeste&gt;Vila Butanta" latitude="-23.56583" longitude="-46.744222" levels="NEIGHBORHOOD">
    <business kind="Rent" />
    <business kind="Sale" />
    <business kind="Development" />
  </item>
  <item neighborhood="Vila Paiva" zone="Zona Norte" city="São Paulo" state="São Paulo" location_id="BR&gt;Sao Paulo&gt;NULL&gt;Sao Paulo&gt;Zona Norte&gt;Vila Paiva" latitude="-23.50234" longitude="-46.601776" levels="NEIGHBORHOOD">
    <business kind="Rent" />
    <business kind="Sale" />
    <business kind="Development" />
  </item>
  <item neighborhood="Jardim Patente" zone="Zona Sul" city="São Paulo" state="São Paulo" location_id="BR&gt;Sao Paulo&gt;NULL&gt;Sao Paulo&gt;Zona Sul&gt;Jardim Patente" latitude="-23.627481" longitude="-46.584902" levels="NEIGHBORHOOD">
    <business kind="Rent" />
    <business kind="Sale" />
    <business kind="Development" />
  </item>
  <item neighborhood="Vila Anglo Brasileira" zone="Zona Oeste" city="São Paulo" state="São Paulo" location_id="BR&gt;Sao Paulo&gt;NULL&gt;Sao Paulo&gt;Zona Oeste&gt;Vila Anglo Brasileira" latitude="-23.538785" longitude="-46.693475" levels="NEIGHBORHOOD">
    <business kind="Rent" />
    <business kind="Sale" />
    <business kind="Development" />
  </item>
  <item neighborhood="Cidade Jardim" zone="Zona Sul" city="São Paulo" state="São Paulo" location_id="BR&gt;Sao Paulo&gt;NULL&gt;Sao Paulo&gt;Zona Sul&gt;CIDADE JARDIM" latitude="-23.577151" longitude="-46.70457" levels="NEIGHBORHOOD">
    <business kind="Rent" />
    <business kind="Sale" />
    <business kind="Development" />
  </item>
  <item neighborhood="Vila Monte Alegre" zone="Zona Sul" city="São Paulo" state="São Paulo" location_id="BR&gt;Sao Paulo&gt;NULL&gt;Sao Paulo&gt;Zona Sul&gt;Vila Monte Alegre" latitude="-23.628384" longitude="-46.63554" levels="NEIGHBORHOOD">
    <business kind="Rent" />
    <business kind="Sale" />
    <business kind="Development" />
  </item>
  <item neighborhood="Jardim Avelino" zone="Zona Leste" city="São Paulo" state="São Paulo" location_id="BR&gt;Sao Paulo&gt;NULL&gt;Sao Paulo&gt;Zona Leste&gt;Jardim Avelino" latitude="-23.588286" longitude="-46.568034" levels="NEIGHBORHOOD">
    <business kind="Rent" />
    <business kind="Sale" />
    <business kind="Development" />
  </item>
  <item neighborhood="Chácara Santo Antônio Zona Leste" zone="Zona Leste" city="São Paulo" state="São Paulo" location_id="BR&gt;Sao Paulo&gt;NULL&gt;Sao Paulo&gt;Zona Leste&gt;Chacara Santo Antonio Zona Leste" latitude="-23.546723" longitude="-46.551172" levels="NEIGHBORHOOD">
    <business kind="Rent" />
    <business kind="Sale" />
    <business kind="Development" />
  </item>
  <item neighborhood="City America" zone="Zona Norte" city="São Paulo" state="São Paulo" location_id="BR&gt;Sao Paulo&gt;NULL&gt;Sao Paulo&gt;Zona Norte&gt;City America" latitude="-23.498811" longitude="-46.729718" levels="NEIGHBORHOOD">
    <business kind="Rent" />
    <business kind="Sale" />
    <business kind="Development" />
  </item>
  <item neighborhood="Vila Pirajussara" zone="Zona Sul" city="São Paulo" state="São Paulo" location_id="BR&gt;Sao Paulo&gt;NULL&gt;Sao Paulo&gt;Zona Sul&gt;Vila Pirajussara" latitude="-23.635494" longitude="-46.773244" levels="NEIGHBORHOOD">
    <business kind="Rent" />
    <business kind="Sale" />
    <business kind="Development" />
  </item>
  <item neighborhood="Chácara Califórnia" zone="Zona Leste" city="São Paulo" state="São Paulo" location_id="BR&gt;Sao Paulo&gt;NULL&gt;Sao Paulo&gt;Zona Leste&gt;Chacara California" latitude="-23.537201" longitude="-46.551172" levels="NEIGHBORHOOD">
    <business kind="Rent" />
    <business kind="Sale" />
    <business kind="Development" />
  </item>
  <item neighborhood="Jardim Umuarama" zone="Zona Sul" city="São Paulo" state="São Paulo" location_id="BR&gt;Sao Paulo&gt;NULL&gt;Sao Paulo&gt;Zona Sul&gt;Jardim Umuarama" latitude="-23.645725" longitude="-46.766592" levels="NEIGHBORHOOD">
    <business kind="Rent" />
    <business kind="Sale" />
    <business kind="Development" />
  </item>
  <item neighborhood="Vila Gertrudes" zone="Zona Sul" city="São Paulo" state="São Paulo" location_id="BR&gt;Sao Paulo&gt;NULL&gt;Sao Paulo&gt;Zona Sul&gt;Vila Gertrudes" latitude="-23.621491" longitude="-46.696494" levels="NEIGHBORHOOD">
    <business kind="Rent" />
    <business kind="Sale" />
    <business kind="Development" />
  </item>
  <item neighborhood="Vila California" zone="Zona Leste" city="São Paulo" state="São Paulo" location_id="BR&gt;Sao Paulo&gt;NULL&gt;Sao Paulo&gt;Zona Leste&gt;Vila California" latitude="-23.608747" longitude="-46.558398" levels="NEIGHBORHOOD">
    <business kind="Rent" />
    <business kind="Sale" />
    <business kind="Development" />
  </item>
  <item neighborhood="Jardim Petrópolis" zone="Zona Sul" city="São Paulo" state="São Paulo" location_id="BR&gt;Sao Paulo&gt;NULL&gt;Sao Paulo&gt;Zona Sul&gt;Jardim Petropolis" latitude="-23.630812" longitude="-46.683814" levels="NEIGHBORHOOD">
    <business kind="Rent" />
    <business kind="Sale" />
    <business kind="Development" />
  </item>
  <item neighborhood="Chácara Mafalda" zone="Zona Leste" city="São Paulo" state="São Paulo" location_id="BR&gt;Sao Paulo&gt;NULL&gt;Sao Paulo&gt;Zona Leste&gt;Chacara Mafalda" latitude="-23.572201" longitude="-46.55599" levels="NEIGHBORHOOD">
    <business kind="Rent" />
    <business kind="Sale" />
    <business kind="Development" />
  </item>
  <item neighborhood="Vila Nair" zone="Zona Sul" city="São Paulo" state="São Paulo" location_id="BR&gt;Sao Paulo&gt;NULL&gt;Sao Paulo&gt;Zona Sul&gt;Vila Nair" latitude="-23.607269" longitude="-46.609009" levels="NEIGHBORHOOD">
    <business kind="Rent" />
    <business kind="Sale" />
    <business kind="Development" />
  </item>
  <item neighborhood="Vila Antonieta" zone="Zona Leste" city="São Paulo" state="São Paulo" location_id="BR&gt;Sao Paulo&gt;NULL&gt;Sao Paulo&gt;Zona Leste&gt;Vila Antonieta" latitude="-23.571913" longitude="-46.513777" levels="NEIGHBORHOOD">
    <business kind="Rent" />
    <business kind="Sale" />
    <business kind="Development" />
  </item>
  <item neighborhood="Jardim Caboré" zone="Zona Oeste" city="São Paulo" state="São Paulo" location_id="BR&gt;Sao Paulo&gt;NULL&gt;Sao Paulo&gt;Zona Oeste&gt;Jardim Cabore" latitude="-23.62067" longitude="-46.742409" levels="NEIGHBORHOOD">
    <business kind="Rent" />
    <business kind="Sale" />
    <business kind="Development" />
  </item>
  <item neighborhood="Luz" zone="Centro" city="São Paulo" state="São Paulo" location_id="BR&gt;Sao Paulo&gt;NULL&gt;Sao Paulo&gt;Centro&gt;Luz" latitude="-23.694141" longitude="-46.648207" levels="NEIGHBORHOOD">
    <business kind="Rent" />
    <business kind="Sale" />
    <business kind="Development" />
  </item>
  <item neighborhood="Sé" zone="Centro" city="São Paulo" state="São Paulo" location_id="BR&gt;Sao Paulo&gt;NULL&gt;Sao Paulo&gt;Centro&gt;Se" latitude="-23.559917" longitude="-46.631259" levels="NEIGHBORHOOD">
    <business kind="Rent" />
    <business kind="Sale" />
    <business kind="Development" />
  </item>
  <item neighborhood="Vila Jacuí" zone="Zona Leste" city="São Paulo" state="São Paulo" location_id="BR&gt;Sao Paulo&gt;NULL&gt;Sao Paulo&gt;Zona Leste&gt;Vila Jacui" latitude="-23.500878" longitude="-46.454504" levels="NEIGHBORHOOD">
    <business kind="Rent" />
    <business kind="Sale" />
    <business kind="Development" />
  </item>
  <item neighborhood="Vila Castelo" zone="Zona Sul" city="São Paulo" state="São Paulo" location_id="BR&gt;Sao Paulo&gt;NULL&gt;Sao Paulo&gt;Zona Sul&gt;Vila Castelo" latitude="-23.675852" longitude="-46.669327" levels="NEIGHBORHOOD">
    <business kind="Rent" />
    <business kind="Sale" />
    <business kind="Development" />
  </item>
  <item neighborhood="Ermelino Matarazzo" zone="Zona Leste" city="São Paulo" state="São Paulo" location_id="BR&gt;Sao Paulo&gt;NULL&gt;Sao Paulo&gt;Zona Leste&gt;Ermelino Matarazzo" latitude="-23.509375" longitude="-46.479572" levels="NEIGHBORHOOD">
    <business kind="Rent" />
    <business kind="Sale" />
    <business kind="Development" />
  </item>
  <item neighborhood="Vila das Belezas" zone="Zona Sul" city="São Paulo" state="São Paulo" location_id="BR&gt;Sao Paulo&gt;NULL&gt;Sao Paulo&gt;Zona Sul&gt;Vila das Belezas" latitude="-23.640948" longitude="-46.742409" levels="NEIGHBORHOOD">
    <business kind="Rent" />
    <business kind="Sale" />
    <business kind="Development" />
  </item>
  <item neighborhood="Parque Munhoz" zone="Zona Sul" city="São Paulo" state="São Paulo" location_id="BR&gt;Sao Paulo&gt;NULL&gt;Sao Paulo&gt;Zona Sul&gt;Parque Munhoz" latitude="-23.652078" longitude="-46.765987" levels="NEIGHBORHOOD">
    <business kind="Rent" />
    <business kind="Sale" />
    <business kind="Development" />
  </item>
  <item neighborhood="Jardim Monte Kemel" zone="Zona Oeste" city="São Paulo" state="São Paulo" location_id="BR&gt;Sao Paulo&gt;NULL&gt;Sao Paulo&gt;Zona Oeste&gt;Jardim Monte Kemel" latitude="-23.601496" longitude="-46.73697" levels="NEIGHBORHOOD">
    <business kind="Rent" />
    <business kind="Sale" />
    <business kind="Development" />
  </item>
  <item neighborhood="Vila do Encontro" zone="Zona Sul" city="São Paulo" state="São Paulo" location_id="BR&gt;Sao Paulo&gt;NULL&gt;Sao Paulo&gt;Zona Sul&gt;Vila do Encontro" latitude="-23.655209" longitude="-46.638636" levels="NEIGHBORHOOD">
    <business kind="Rent" />
    <business kind="Sale" />
    <business kind="Development" />
  </item>
  <item neighborhood="Vila Lucia" zone="Zona Leste" city="São Paulo" state="São Paulo" location_id="BR&gt;Sao Paulo&gt;NULL&gt;Sao Paulo&gt;Zona Leste&gt;Vila Lucia" latitude="-23.593885" longitude="-46.570444" levels="NEIGHBORHOOD">
    <business kind="Rent" />
    <business kind="Sale" />
    <business kind="Development" />
  </item>
  <item neighborhood="Jardim Fonte do Morumbi " zone="Zona Sul" city="São Paulo" state="São Paulo" location_id="BR&gt;Sao Paulo&gt;NULL&gt;Sao Paulo&gt;Zona Sul&gt;Jardim Fonte do Morumbi" latitude="-23.628238" longitude="-46.719446" levels="NEIGHBORHOOD">
    <business kind="Rent" />
    <business kind="Sale" />
    <business kind="Development" />
  </item>
  <item neighborhood="Jardim Parque Morumbi" zone="Zona Sul" city="São Paulo" state="São Paulo" location_id="BR&gt;Sao Paulo&gt;NULL&gt;Sao Paulo&gt;Zona Sul&gt;Jardim Parque Morumbi" latitude="-23.622458" longitude="-46.730322" levels="NEIGHBORHOOD">
    <business kind="Rent" />
    <business kind="Sale" />
    <business kind="Development" />
  </item>
  <item neighborhood="Vila Talarico" zone="Zona Leste" city="São Paulo" state="São Paulo" location_id="BR&gt;Sao Paulo&gt;NULL&gt;Sao Paulo&gt;Zona Leste&gt;Vila Talarico" latitude="-23.545991" longitude="-46.509644" levels="NEIGHBORHOOD">
    <business kind="Rent" />
    <business kind="Sale" />
    <business kind="Development" />
  </item>
  <item neighborhood="Vila Santo Estéfano" zone="Zona Sul" city="São Paulo" state="São Paulo" location_id="BR&gt;Sao Paulo&gt;NULL&gt;Sao Paulo&gt;Zona Sul&gt;Vila Santo Estefano" latitude="-23.626583" longitude="-46.623479" levels="NEIGHBORHOOD">
    <business kind="Rent" />
    <business kind="Sale" />
    <business kind="Development" />
  </item>
  <item neighborhood="Paraíso do Morumbi" zone="Zona Sul" city="São Paulo" state="São Paulo" location_id="BR&gt;Sao Paulo&gt;NULL&gt;Sao Paulo&gt;Zona Sul&gt;Paraiso do Morumbi" latitude="-23.622724" longitude="-46.722467" levels="NEIGHBORHOOD">
    <business kind="Rent" />
    <business kind="Sale" />
    <business kind="Development" />
  </item>
  <item neighborhood="Parque Jabaquara" zone="Zona Sul" city="São Paulo" state="São Paulo" location_id="BR&gt;Sao Paulo&gt;NULL&gt;Sao Paulo&gt;Zona Sul&gt;Parque Jabaquara" latitude="-23.638297" longitude="-46.657258" levels="NEIGHBORHOOD">
    <business kind="Rent" />
    <business kind="Sale" />
    <business kind="Development" />
  </item>
  <item neighborhood="Jardim Dom Bosco" zone="Zona Sul" city="São Paulo" state="São Paulo" location_id="BR&gt;Sao Paulo&gt;NULL&gt;Sao Paulo&gt;Zona Sul&gt;Jardim Dom Bosco" latitude="-23.648124" longitude="-46.72005" levels="NEIGHBORHOOD">
    <business kind="Rent" />
    <business kind="Sale" />
    <business kind="Development" />
  </item>
  <item neighborhood="Piqueri" zone="Zona Oeste" city="São Paulo" state="São Paulo" location_id="BR&gt;Sao Paulo&gt;NULL&gt;Sao Paulo&gt;Zona Oeste&gt;Piqueri" latitude="-23.499973" longitude="-46.722585" levels="NEIGHBORHOOD">
    <business kind="Rent" />
    <business kind="Sale" />
    <business kind="Development" />
  </item>
  <item neighborhood="Jardim Ester" zone="Zona Oeste" city="São Paulo" state="São Paulo" location_id="BR&gt;Sao Paulo&gt;NULL&gt;Sao Paulo&gt;Zona Oeste&gt;Jardim Ester" latitude="-23.583596" longitude="-46.76115" levels="NEIGHBORHOOD">
    <business kind="Rent" />
    <business kind="Sale" />
    <business kind="Development" />
  </item>
  <item neighborhood="Vila Hamburguesa" zone="Zona Oeste" city="São Paulo" state="São Paulo" location_id="BR&gt;Sao Paulo&gt;NULL&gt;Sao Paulo&gt;Zona Oeste&gt;Vila Hamburguesa" latitude="-23.544131" longitude="-46.729718" levels="NEIGHBORHOOD">
    <business kind="Rent" />
    <business kind="Sale" />
    <business kind="Development" />
  </item>
  <item neighborhood="Jardim Peri" zone="Zona Norte" city="São Paulo" state="São Paulo" location_id="BR&gt;Sao Paulo&gt;NULL&gt;Sao Paulo&gt;Zona Norte&gt;Jardim Peri" latitude="-23.455613" longitude="-46.659671" levels="NEIGHBORHOOD">
    <business kind="Rent" />
    <business kind="Sale" />
    <business kind="Development" />
  </item>
  <item neighborhood="Americanópolis" zone="Zona Sul" city="São Paulo" state="São Paulo" location_id="BR&gt;Sao Paulo&gt;NULL&gt;Sao Paulo&gt;Zona Sul&gt;Americanopolis" latitude="-23.676237" longitude="-46.649541" levels="NEIGHBORHOOD">
    <business kind="Rent" />
    <business kind="Sale" />
    <business kind="Development" />
  </item>
  <item neighborhood="Jardim Têxtil" zone="Zona Leste" city="São Paulo" state="São Paulo" location_id="BR&gt;Sao Paulo&gt;NULL&gt;Sao Paulo&gt;Zona Leste&gt;Jardim Textil" latitude="-23.55734" longitude="-46.545754" levels="NEIGHBORHOOD">
    <business kind="Rent" />
    <business kind="Sale" />
    <business kind="Development" />
  </item>
  <item neighborhood="Jardim Sabará" zone="Zona Sul" city="São Paulo" state="São Paulo" location_id="BR&gt;Sao Paulo&gt;NULL&gt;Sao Paulo&gt;Zona Sul&gt;Jardim Sabara" latitude="-23.689705" longitude="-46.688644" levels="NEIGHBORHOOD">
    <business kind="Rent" />
    <business kind="Sale" />
    <business kind="Development" />
  </item>
  <item neighborhood="Vila Santa Clara" zone="Zona Leste" city="São Paulo" state="São Paulo" location_id="BR&gt;Sao Paulo&gt;NULL&gt;Sao Paulo&gt;Zona Leste&gt;Vila Santa Clara" latitude="-23.578545" longitude="-46.56279" levels="NEIGHBORHOOD">
    <business kind="Rent" />
    <business kind="Sale" />
    <business kind="Development" />
  </item>
  <item neighborhood="Vila Aricanduva" zone="Zona Leste" city="São Paulo" state="São Paulo" location_id="BR&gt;Sao Paulo&gt;NULL&gt;Sao Paulo&gt;Zona Leste&gt;Vila Aricanduva" latitude="-23.53619" longitude="-46.539876" levels="NEIGHBORHOOD">
    <business kind="Rent" />
    <business kind="Sale" />
    <business kind="Development" />
  </item>
  <item neighborhood="Jardim Leonor Mendes de Barros" zone="Zona Norte" city="São Paulo" state="São Paulo" location_id="BR&gt;Sao Paulo&gt;NULL&gt;Sao Paulo&gt;Zona Norte&gt;Jardim Leonor Mendes de Barros" latitude="-23.467489" longitude="-46.610034" levels="NEIGHBORHOOD">
    <business kind="Rent" />
    <business kind="Sale" />
    <business kind="Development" />
  </item>
  <item neighborhood="Cidade Ademar" zone="Zona Sul" city="São Paulo" state="São Paulo" location_id="BR&gt;Sao Paulo&gt;NULL&gt;Sao Paulo&gt;Zona Sul&gt;Cidade Ademar" latitude="-23.670859" longitude="-46.656654" levels="NEIGHBORHOOD">
    <business kind="Rent" />
    <business kind="Sale" />
    <business kind="Development" />
  </item>
  <item neighborhood="Vila Pirituba" zone="Zona Norte" city="São Paulo" state="São Paulo" location_id="BR&gt;Sao Paulo&gt;NULL&gt;Sao Paulo&gt;Zona Norte&gt;Vila Pirituba" latitude="-23.479116" longitude="-46.741805" levels="NEIGHBORHOOD">
    <business kind="Rent" />
    <business kind="Sale" />
    <business kind="Development" />
  </item>
  <item neighborhood="Bela Aliança" zone="Zona Oeste" city="São Paulo" state="São Paulo" location_id="BR&gt;Sao Paulo&gt;NULL&gt;Sao Paulo&gt;Zona Oeste&gt;Bela Alianca" latitude="-23.528989" longitude="-46.720086" levels="NEIGHBORHOOD">
    <business kind="Rent" />
    <business kind="Sale" />
    <business kind="Development" />
  </item>
  <item neighborhood="Parque Imperial " zone="Zona Sul" city="São Paulo" state="São Paulo" location_id="BR&gt;Sao Paulo&gt;NULL&gt;Sao Paulo&gt;Zona Sul&gt;Parque Imperial" latitude="-23.623168" longitude="-46.632524" levels="NEIGHBORHOOD">
    <business kind="Rent" />
    <business kind="Sale" />
    <business kind="Development" />
  </item>
  <item neighborhood="Jardim Brasil" zone="Zona Norte" city="São Paulo" state="São Paulo" location_id="BR&gt;Sao Paulo&gt;NULL&gt;Sao Paulo&gt;Zona Norte&gt;Jardim Brasil" latitude="-23.466977" longitude="-46.575263" levels="NEIGHBORHOOD">
    <business kind="Rent" />
    <business kind="Sale" />
    <business kind="Development" />
  </item>
  <item neighborhood="Vila Invernada" zone="Zona Leste" city="São Paulo" state="São Paulo" location_id="BR&gt;Sao Paulo&gt;NULL&gt;Sao Paulo&gt;Zona Leste&gt;Vila Invernada" latitude="-23.567567" longitude="-46.563216" levels="NEIGHBORHOOD">
    <business kind="Rent" />
    <business kind="Sale" />
    <business kind="Development" />
  </item>
  <item neighborhood="Jardim Das Bandeiras" zone="Zona Oeste" city="São Paulo" state="São Paulo" location_id="BR&gt;Sao Paulo&gt;NULL&gt;Sao Paulo&gt;Zona Oeste&gt;Jardim Das Bandeiras" latitude="-23.559397" longitude="-46.668759" levels="NEIGHBORHOOD">
    <business kind="Rent" />
    <business kind="Sale" />
    <business kind="Development" />
  </item>
  <item neighborhood="Vila Indiana" zone="Zona Oeste" city="São Paulo" state="São Paulo" location_id="BR&gt;Sao Paulo&gt;NULL&gt;Sao Paulo&gt;Zona Oeste&gt;Vila Indiana" latitude="-23.57192" longitude="-46.727301" levels="NEIGHBORHOOD">
    <business kind="Rent" />
    <business kind="Sale" />
    <business kind="Development" />
  </item>
  <item neighborhood="Jardim Cordeiro" zone="Zona Sul" city="São Paulo" state="São Paulo" location_id="BR&gt;Sao Paulo&gt;NULL&gt;Sao Paulo&gt;Zona Sul&gt;Jardim Cordeiro" latitude="-23.637128" longitude="-46.681399" levels="NEIGHBORHOOD">
    <business kind="Rent" />
    <business kind="Sale" />
    <business kind="Development" />
  </item>
  <item neighborhood="Vila Ester Zona Norte" zone="Zona Norte" city="São Paulo" state="São Paulo" location_id="BR&gt;Sao Paulo&gt;NULL&gt;Sao Paulo&gt;Zona Norte&gt;Vila Ester Zona Norte" latitude="-23.500636" longitude="-46.643381" levels="NEIGHBORHOOD">
    <business kind="Rent" />
    <business kind="Sale" />
    <business kind="Development" />
  </item>
  <item neighborhood="Jardim Aricanduva" zone="Zona Leste" city="São Paulo" state="São Paulo" location_id="BR&gt;Sao Paulo&gt;NULL&gt;Sao Paulo&gt;Zona Leste&gt;Jardim Aricanduva" latitude="-23.571913" longitude="-46.513777" levels="NEIGHBORHOOD">
    <business kind="Rent" />
    <business kind="Sale" />
    <business kind="Development" />
  </item>
  <item neighborhood="Cidade A E Carvalho" zone="Zona Leste" city="São Paulo" state="São Paulo" location_id="BR&gt;Sao Paulo&gt;NULL&gt;Sao Paulo&gt;Zona Leste&gt;Cidade A E Carvalho" latitude="-23.536734" longitude="-46.471627" levels="NEIGHBORHOOD">
    <business kind="Rent" />
    <business kind="Sale" />
    <business kind="Development" />
  </item>
  <item neighborhood="Vila Amélia" zone="Zona Norte" city="São Paulo" state="São Paulo" location_id="BR&gt;Sao Paulo&gt;NULL&gt;Sao Paulo&gt;Zona Norte&gt;Vila Amelia" latitude="-23.47102" longitude="-46.654241" levels="NEIGHBORHOOD">
    <business kind="Rent" />
    <business kind="Sale" />
    <business kind="Development" />
  </item>
  <item neighborhood="Jardim Cidade Pirituba" zone="Zona Oeste" city="São Paulo" state="São Paulo" location_id="BR&gt;Sao Paulo&gt;NULL&gt;Sao Paulo&gt;Zona Oeste&gt;Jardim Cidade Pirituba" latitude="-23.479006" longitude="-46.727258" levels="NEIGHBORHOOD">
    <business kind="Rent" />
    <business kind="Sale" />
    <business kind="Development" />
  </item>
  <item neighborhood="Jardim Regina" zone="Zona Norte" city="São Paulo" state="São Paulo" location_id="BR&gt;Sao Paulo&gt;NULL&gt;Sao Paulo&gt;Zona Norte&gt;Jardim Regina" latitude="-23.479116" longitude="-46.741805" levels="NEIGHBORHOOD">
    <business kind="Rent" />
    <business kind="Sale" />
    <business kind="Development" />
  </item>
  <item neighborhood="Parque Continental" zone="Zona Oeste" city="São Paulo" state="São Paulo" location_id="BR&gt;Sao Paulo&gt;NULL&gt;Sao Paulo&gt;Zona Oeste&gt;Parque Continental" latitude="-23.542033" longitude="-46.760848" levels="NEIGHBORHOOD">
    <business kind="Rent" />
    <business kind="Sale" />
    <business kind="Development" />
  </item>
  <item neighborhood="Serra da Cantareira" zone="Zona Norte" city="São Paulo" state="São Paulo" location_id="BR&gt;Sao Paulo&gt;NULL&gt;Sao Paulo&gt;Zona Norte&gt;Serra da Cantareira" latitude="-23.432368" longitude="-46.590977" levels="NEIGHBORHOOD">
    <business kind="Rent" />
    <business kind="Sale" />
    <business kind="Development" />
  </item>
  <item neighborhood="Vila Aurora" zone="Zona Norte" city="São Paulo" state="São Paulo" location_id="BR&gt;Sao Paulo&gt;NULL&gt;Sao Paulo&gt;Zona Norte&gt;Vila Aurora" latitude="-23.475715" longitude="-46.624685" levels="NEIGHBORHOOD">
    <business kind="Rent" />
    <business kind="Sale" />
    <business kind="Development" />
  </item>
  <item neighborhood="São Judas" zone="Zona Sul" city="São Paulo" state="São Paulo" location_id="BR&gt;Sao Paulo&gt;NULL&gt;Sao Paulo&gt;Zona Sul&gt;Sao Judas" latitude="-23.628384" longitude="-46.63554" levels="NEIGHBORHOOD">
    <business kind="Rent" />
    <business kind="Sale" />
    <business kind="Development" />
  </item>
  <item neighborhood="Vila Buenos Aires" zone="Zona Leste" city="São Paulo" state="São Paulo" location_id="BR&gt;Sao Paulo&gt;NULL&gt;Sao Paulo&gt;Zona Leste&gt;Vila Buenos Aires" latitude="-23.508543" longitude="-46.516217" levels="NEIGHBORHOOD">
    <business kind="Rent" />
    <business kind="Sale" />
    <business kind="Development" />
  </item>
  <item neighborhood="Parque Vitória" zone="Zona Norte" city="São Paulo" state="São Paulo" location_id="BR&gt;Sao Paulo&gt;NULL&gt;Sao Paulo&gt;Zona Norte&gt;Parque Vitoria" latitude="-23.471259" longitude="-46.594544" levels="NEIGHBORHOOD">
    <business kind="Rent" />
    <business kind="Sale" />
    <business kind="Development" />
  </item>
  <item neighborhood="Chácara Flora" zone="Zona Sul" city="São Paulo" state="São Paulo" location_id="BR&gt;Sao Paulo&gt;NULL&gt;Sao Paulo&gt;Zona Sul&gt;Chacara Flora" latitude="-23.649702" longitude="-46.686613" levels="NEIGHBORHOOD">
    <business kind="Rent" />
    <business kind="Sale" />
    <business kind="Development" />
  </item>
  <item neighborhood="Parque Boturussu" zone="Zona Leste" city="São Paulo" state="São Paulo" location_id="BR&gt;Sao Paulo&gt;NULL&gt;Sao Paulo&gt;Zona Leste&gt;Parque Boturussu" latitude="-23.497171" longitude="-46.485008" levels="NEIGHBORHOOD">
    <business kind="Rent" />
    <business kind="Sale" />
    <business kind="Development" />
  </item>
  <item neighborhood="Chácara Monte Alegre" zone="Zona Sul" city="São Paulo" state="São Paulo" location_id="BR&gt;Sao Paulo&gt;NULL&gt;Sao Paulo&gt;Zona Sul&gt;Chacara Monte Alegre" latitude="-23.64499" longitude="-46.67657" levels="NEIGHBORHOOD">
    <business kind="Rent" />
    <business kind="Sale" />
    <business kind="Development" />
  </item>
  <item neighborhood="Jardim Vergueiro (Sacomã)" zone="bairros" city="São Paulo" state="São Paulo" location_id="BR&gt;Sao Paulo&gt;NULL&gt;Sao Paulo&gt;Barrios&gt;Jardim Vergueiro Sacoma" latitude="-23.626164" longitude="-46.599968" levels="NEIGHBORHOOD">
    <business kind="Rent" />
    <business kind="Sale" />
    <business kind="Development" />
  </item>
  <item neighborhood="Cidade São Francisco" zone="Zona Oeste" city="São Paulo" state="São Paulo" location_id="BR&gt;Sao Paulo&gt;NULL&gt;Sao Paulo&gt;Zona Oeste&gt;Cidade Sao Francisco" latitude="-23.521604" longitude="-46.494215" levels="NEIGHBORHOOD">
    <business kind="Rent" />
    <business kind="Sale" />
    <business kind="Development" />
  </item>
  <item neighborhood="Vila Curuçá" zone="Zona Leste" city="São Paulo" state="São Paulo" location_id="BR&gt;Sao Paulo&gt;NULL&gt;Sao Paulo&gt;Zona Leste&gt;Vila Curuca" latitude="-23.515988" longitude="-46.428493" levels="NEIGHBORHOOD">
    <business kind="Rent" />
    <business kind="Sale" />
    <business kind="Development" />
  </item>
  <item neighborhood="Cidade Vargas" zone="Zona Sul" city="São Paulo" state="São Paulo" location_id="BR&gt;Sao Paulo&gt;NULL&gt;Sao Paulo&gt;Zona Sul&gt;Cidade Vargas" latitude="-23.647446" longitude="-46.63554" levels="NEIGHBORHOOD">
    <business kind="Rent" />
    <business kind="Sale" />
    <business kind="Development" />
  </item>
  <item neighborhood="Jardim Virgínia Bianca" zone="Zona Norte" city="São Paulo" state="São Paulo" location_id="BR&gt;Sao Paulo&gt;NULL&gt;Sao Paulo&gt;Zona Norte&gt;Jardim Virginia Bianca" latitude="-23.456911" longitude="-46.616676" levels="NEIGHBORHOOD">
    <business kind="Rent" />
    <business kind="Sale" />
    <business kind="Development" />
  </item>
  <item neighborhood="Super Quadra" zone="Zona Sul" city="São Paulo" state="São Paulo" location_id="BR&gt;Sao Paulo&gt;NULL&gt;Sao Paulo&gt;Zona Sul&gt;Super Quadra" latitude="-23.614378" longitude="-46.74664" levels="NEIGHBORHOOD">
    <business kind="Rent" />
    <business kind="Sale" />
    <business kind="Development" />
  </item>
  <item neighborhood="Jardim Esmeralda" zone="Zona Oeste" city="São Paulo" state="São Paulo" location_id="BR&gt;Sao Paulo&gt;NULL&gt;Sao Paulo&gt;Zona Oeste&gt;Jardim Esmeralda" latitude="-23.575575" longitude="-46.756917" levels="NEIGHBORHOOD">
    <business kind="Rent" />
    <business kind="Sale" />
    <business kind="Development" />
  </item>
  <item neighborhood="Vila Industrial" zone="Zona Leste" city="São Paulo" state="São Paulo" location_id="BR&gt;Sao Paulo&gt;NULL&gt;Sao Paulo&gt;Zona Leste&gt;Vila Industrial" latitude="-23.612595" longitude="-46.530103" levels="NEIGHBORHOOD">
    <business kind="Rent" />
    <business kind="Sale" />
    <business kind="Development" />
  </item>
  <item neighborhood="Jardim Morumbi" zone="Zona Oeste" city="São Paulo" state="São Paulo" location_id="BR&gt;Sao Paulo&gt;NULL&gt;Sao Paulo&gt;Zona Oeste&gt;Jardim Morumbi" latitude="-23.6103" longitude="-46.718591" levels="NEIGHBORHOOD">
    <business kind="Rent" />
    <business kind="Sale" />
    <business kind="Development" />
  </item>
  <item neighborhood="Santa Ifigênia" zone="Centro" city="São Paulo" state="São Paulo" location_id="BR&gt;Sao Paulo&gt;NULL&gt;Sao Paulo&gt;Centro&gt;Santa Ifigenia" latitude="-23.537655" longitude="-46.638525" levels="NEIGHBORHOOD">
    <business kind="Rent" />
    <business kind="Sale" />
    <business kind="Development" />
  </item>
  <item neighborhood="Vila Leonor" zone="Zona Norte" city="São Paulo" state="São Paulo" location_id="BR&gt;Sao Paulo&gt;NULL&gt;Sao Paulo&gt;Zona Norte&gt;Vila Leonor" latitude="-23.501613" longitude="-46.597334" levels="NEIGHBORHOOD">
    <business kind="Rent" />
    <business kind="Sale" />
    <business kind="Development" />
  </item>
  <item neighborhood="Jardim São Luís" zone="Zona Sul" city="São Paulo" state="São Paulo" location_id="BR&gt;Sao Paulo&gt;NULL&gt;Sao Paulo&gt;Zona Sul&gt;Jardim Sao Luis" latitude="-23.651376" longitude="-46.733056" levels="NEIGHBORHOOD">
    <business kind="Rent" />
    <business kind="Sale" />
    <business kind="Development" />
  </item>
  <item neighborhood="Vila Marari" zone="Zona Sul" city="São Paulo" state="São Paulo" location_id="BR&gt;Sao Paulo&gt;NULL&gt;Sao Paulo&gt;Zona Sul&gt;Vila Marari" latitude="-23.670956" longitude="-46.662085" levels="NEIGHBORHOOD">
    <business kind="Rent" />
    <business kind="Sale" />
    <business kind="Development" />
  </item>
  <item neighborhood="Vila Dalila" zone="Zona Leste" city="São Paulo" state="São Paulo" location_id="BR&gt;Sao Paulo&gt;NULL&gt;Sao Paulo&gt;Zona Leste&gt;Vila Dalila" latitude="-23.542164" longitude="-46.517465" levels="NEIGHBORHOOD">
    <business kind="Rent" />
    <business kind="Sale" />
    <business kind="Development" />
  </item>
  <item neighborhood="Vila Primavera" zone="Zona Leste" city="São Paulo" state="São Paulo" location_id="BR&gt;Sao Paulo&gt;NULL&gt;Sao Paulo&gt;Zona Leste&gt;Vila Primavera" latitude="-23.590725" longitude="-46.527094" levels="NEIGHBORHOOD">
    <business kind="Rent" />
    <business kind="Sale" />
    <business kind="Development" />
  </item>
  <item neighborhood="Jurubatuba" zone="Zona Sul" city="São Paulo" state="São Paulo" location_id="BR&gt;Sao Paulo&gt;NULL&gt;Sao Paulo&gt;Zona Sul&gt;Jurubatuba" latitude="-23.675263" longitude="-46.699261" levels="NEIGHBORHOOD">
    <business kind="Rent" />
    <business kind="Sale" />
    <business kind="Development" />
  </item>
  <item neighborhood="Vila Progredior" zone="Zona Sul" city="São Paulo" state="São Paulo" location_id="BR&gt;Sao Paulo&gt;NULL&gt;Sao Paulo&gt;Zona Sul&gt;Vila Progredior" latitude="-23.590049" longitude="-46.717634" levels="NEIGHBORHOOD">
    <business kind="Rent" />
    <business kind="Sale" />
    <business kind="Development" />
  </item>
  <item neighborhood="Vila Dos Remedios" zone="Zona Oeste" city="São Paulo" state="São Paulo" location_id="BR&gt;Sao Paulo&gt;NULL&gt;Sao Paulo&gt;Zona Oeste&gt;Vila Dos Remedios" latitude="-23.514041" longitude="-46.745443" levels="NEIGHBORHOOD">
    <business kind="Rent" />
    <business kind="Sale" />
    <business kind="Development" />
  </item>
  <item neighborhood="Cupecê" zone="Zona Sul" city="São Paulo" state="São Paulo" location_id="BR&gt;Sao Paulo&gt;NULL&gt;Sao Paulo&gt;Zona Sul&gt;Cupece" latitude="-23.663547" longitude="-46.669931" levels="NEIGHBORHOOD">
    <business kind="Rent" />
    <business kind="Sale" />
    <business kind="Development" />
  </item>
  <item neighborhood="Vila São José" zone="Zona Sul" city="São Paulo" state="São Paulo" location_id="BR&gt;Sao Paulo&gt;NULL&gt;Sao Paulo&gt;Zona Sul&gt;Vila Sao Jose" latitude="-23.599413" longitude="-46.613832" levels="NEIGHBORHOOD">
    <business kind="Rent" />
    <business kind="Sale" />
    <business kind="Development" />
  </item>
  <item neighborhood="Parque Fongaro" zone="Zona Sul" city="São Paulo" state="São Paulo" location_id="BR&gt;Sao Paulo&gt;NULL&gt;Sao Paulo&gt;Zona Sul&gt;Parque Fongaro" latitude="-23.633212" longitude="-46.594544" levels="NEIGHBORHOOD">
    <business kind="Rent" />
    <business kind="Sale" />
    <business kind="Development" />
  </item>
  <item neighborhood="Jardim Floresta" zone="Zona Sul" city="São Paulo" state="São Paulo" location_id="BR&gt;Sao Paulo&gt;NULL&gt;Sao Paulo&gt;Zona Sul&gt;Jardim Floresta" latitude="-23.502188" longitude="-46.691059" levels="NEIGHBORHOOD">
    <business kind="Rent" />
    <business kind="Sale" />
    <business kind="Development" />
  </item>
  <item neighborhood="Jardim Taquaral" zone="Zona Sul" city="São Paulo" state="São Paulo" location_id="BR&gt;Sao Paulo&gt;NULL&gt;Sao Paulo&gt;Zona Sul&gt;Jardim Taquaral" latitude="-23.664994" longitude="-46.684418" levels="NEIGHBORHOOD">
    <business kind="Rent" />
    <business kind="Sale" />
    <business kind="Development" />
  </item>
  <item neighborhood="Vila Beatriz" zone="Zona Leste" city="São Paulo" state="São Paulo" location_id="BR&gt;Sao Paulo&gt;NULL&gt;Sao Paulo&gt;Zona Leste&gt;Vila Beatriz" latitude="-23.52698" longitude="-46.533714" levels="NEIGHBORHOOD">
    <business kind="Rent" />
    <business kind="Sale" />
    <business kind="Development" />
  </item>
