<?xml version="1.0" encoding="utf-8"?>
<inputs xmlns:xsi="http://www.w3.org/2001/XMLSchema-instance" xmlns:xsd="http://www.w3.org/2001/XMLSchema">
  <item neighborhood="Vila Santa Clara" zone="Zona Leste" city="São Paulo" state="São Paulo" location_id="BR&gt;Sao Paulo&gt;NULL&gt;Sao Paulo&gt;Zona Leste&gt;Vila Santa Clara" latitude="-23.578545" longitude="-46.56279" levels="NEIGHBORHOOD">
    <business kind="Rent" />
    <business kind="Sale" />
    <business kind="Development" />
  </item>
  <item neighborhood="Vila Aricanduva" zone="Zona Leste" city="São Paulo" state="São Paulo" location_id="BR&gt;Sao Paulo&gt;NULL&gt;Sao Paulo&gt;Zona Leste&gt;Vila Aricanduva" latitude="-23.53619" longitude="-46.539876" levels="NEIGHBORHOOD">
    <business kind="Rent" />
    <business kind="Sale" />
    <business kind="Development" />
  </item>
  <item neighborhood="Jardim Leonor Mendes de Barros" zone="Zona Norte" city="São Paulo" state="São Paulo" location_id="BR&gt;Sao Paulo&gt;NULL&gt;Sao Paulo&gt;Zona Norte&gt;Jardim Leonor Mendes de Barros" latitude="-23.467489" longitude="-46.610034" levels="NEIGHBORHOOD">
    <business kind="Rent" />
    <business kind="Sale" />
    <business kind="Development" />
  </item>
  <item neighborhood="Cidade Ademar" zone="Zona Sul" city="São Paulo" state="São Paulo" location_id="BR&gt;Sao Paulo&gt;NULL&gt;Sao Paulo&gt;Zona Sul&gt;Cidade Ademar" latitude="-23.670859" longitude="-46.656654" levels="NEIGHBORHOOD">
    <business kind="Rent" />
    <business kind="Sale" />
    <business kind="Development" />
  </item>
  <item neighborhood="Vila Pirituba" zone="Zona Norte" city="São Paulo" state="São Paulo" location_id="BR&gt;Sao Paulo&gt;NULL&gt;Sao Paulo&gt;Zona Norte&gt;Vila Pirituba" latitude="-23.479116" longitude="-46.741805" levels="NEIGHBORHOOD">
    <business kind="Rent" />
    <business kind="Sale" />
    <business kind="Development" />
  </item>
  <item neighborhood="Bela Aliança" zone="Zona Oeste" city="São Paulo" state="São Paulo" location_id="BR&gt;Sao Paulo&gt;NULL&gt;Sao Paulo&gt;Zona Oeste&gt;Bela Alianca" latitude="-23.528989" longitude="-46.720086" levels="NEIGHBORHOOD">
    <business kind="Rent" />
    <business kind="Sale" />
    <business kind="Development" />
  </item>
  <item neighborhood="Parque Imperial " zone="Zona Sul" city="São Paulo" state="São Paulo" location_id="BR&gt;Sao Paulo&gt;NULL&gt;Sao Paulo&gt;Zona Sul&gt;Parque Imperial" latitude="-23.623168" longitude="-46.632524" levels="NEIGHBORHOOD">
    <business kind="Rent" />
    <business kind="Sale" />
    <business kind="Development" />
  </item>
  <item neighborhood="Jardim Brasil" zone="Zona Norte" city="São Paulo" state="São Paulo" location_id="BR&gt;Sao Paulo&gt;NULL&gt;Sao Paulo&gt;Zona Norte&gt;Jardim Brasil" latitude="-23.466977" longitude="-46.575263" levels="NEIGHBORHOOD">
    <business kind="Rent" />
    <business kind="Sale" />
    <business kind="Development" />
  </item>
  <item neighborhood="Vila Invernada" zone="Zona Leste" city="São Paulo" state="São Paulo" location_id="BR&gt;Sao Paulo&gt;NULL&gt;Sao Paulo&gt;Zona Leste&gt;Vila Invernada" latitude="-23.567567" longitude="-46.563216" levels="NEIGHBORHOOD">
    <business kind="Rent" />
    <business kind="Sale" />
    <business kind="Development" />
  </item>
  <item neighborhood="Jardim Das Bandeiras" zone="Zona Oeste" city="São Paulo" state="São Paulo" location_id="BR&gt;Sao Paulo&gt;NULL&gt;Sao Paulo&gt;Zona Oeste&gt;Jardim Das Bandeiras" latitude="-23.559397" longitude="-46.668759" levels="NEIGHBORHOOD">
    <business kind="Rent" />
    <business kind="Sale" />
    <business kind="Development" />
  </item>
  <item neighborhood="Vila Indiana" zone="Zona Oeste" city="São Paulo" state="São Paulo" location_id="BR&gt;Sao Paulo&gt;NULL&gt;Sao Paulo&gt;Zona Oeste&gt;Vila Indiana" latitude="-23.57192" longitude="-46.727301" levels="NEIGHBORHOOD">
    <business kind="Rent" />
    <business kind="Sale" />
    <business kind="Development" />
  </item>
  <item neighborhood="Jardim Cordeiro" zone="Zona Sul" city="São Paulo" state="São Paulo" location_id="BR&gt;Sao Paulo&gt;NULL&gt;Sao Paulo&gt;Zona Sul&gt;Jardim Cordeiro" latitude="-23.637128" longitude="-46.681399" levels="NEIGHBORHOOD">
    <business kind="Rent" />
    <business kind="Sale" />
    <business kind="Development" />
  </item>
  <item neighborhood="Vila Ester Zona Norte" zone="Zona Norte" city="São Paulo" state="São Paulo" location_id="BR&gt;Sao Paulo&gt;NULL&gt;Sao Paulo&gt;Zona Norte&gt;Vila Ester Zona Norte" latitude="-23.500636" longitude="-46.643381" levels="NEIGHBORHOOD">
    <business kind="Rent" />
    <business kind="Sale" />
    <business kind="Development" />
  </item>
  <item neighborhood="Jardim Aricanduva" zone="Zona Leste" city="São Paulo" state="São Paulo" location_id="BR&gt;Sao Paulo&gt;NULL&gt;Sao Paulo&gt;Zona Leste&gt;Jardim Aricanduva" latitude="-23.571913" longitude="-46.513777" levels="NEIGHBORHOOD">
    <business kind="Rent" />
    <business kind="Sale" />
    <business kind="Development" />
  </item>
  <item neighborhood="Cidade A E Carvalho" zone="Zona Leste" city="São Paulo" state="São Paulo" location_id="BR&gt;Sao Paulo&gt;NULL&gt;Sao Paulo&gt;Zona Leste&gt;Cidade A E Carvalho" latitude="-23.536734" longitude="-46.471627" levels="NEIGHBORHOOD">
    <business kind="Rent" />
    <business kind="Sale" />
    <business kind="Development" />
  </item>
  <item neighborhood="Vila Amélia" zone="Zona Norte" city="São Paulo" state="São Paulo" location_id="BR&gt;Sao Paulo&gt;NULL&gt;Sao Paulo&gt;Zona Norte&gt;Vila Amelia" latitude="-23.47102" longitude="-46.654241" levels="NEIGHBORHOOD">
    <business kind="Rent" />
    <business kind="Sale" />
    <business kind="Development" />
  </item>
  <item neighborhood="Jardim Cidade Pirituba" zone="Zona Oeste" city="São Paulo" state="São Paulo" location_id="BR&gt;Sao Paulo&gt;NULL&gt;Sao Paulo&gt;Zona Oeste&gt;Jardim Cidade Pirituba" latitude="-23.479006" longitude="-46.727258" levels="NEIGHBORHOOD">
    <business kind="Rent" />
    <business kind="Sale" />
    <business kind="Development" />
  </item>
  <item neighborhood="Jardim Regina" zone="Zona Norte" city="São Paulo" state="São Paulo" location_id="BR&gt;Sao Paulo&gt;NULL&gt;Sao Paulo&gt;Zona Norte&gt;Jardim Regina" latitude="-23.479116" longitude="-46.741805" levels="NEIGHBORHOOD">
    <business kind="Rent" />
    <business kind="Sale" />
    <business kind="Development" />
  </item>
  <item neighborhood="Parque Continental" zone="Zona Oeste" city="São Paulo" state="São Paulo" location_id="BR&gt;Sao Paulo&gt;NULL&gt;Sao Paulo&gt;Zona Oeste&gt;Parque Continental" latitude="-23.542033" longitude="-46.760848" levels="NEIGHBORHOOD">
    <business kind="Rent" />
    <business kind="Sale" />
    <business kind="Development" />
  </item>
  <item neighborhood="Serra da Cantareira" zone="Zona Norte" city="São Paulo" state="São Paulo" location_id="BR&gt;Sao Paulo&gt;NULL&gt;Sao Paulo&gt;Zona Norte&gt;Serra da Cantareira" latitude="-23.432368" longitude="-46.590977" levels="NEIGHBORHOOD">
    <business kind="Rent" />
    <business kind="Sale" />
    <business kind="Development" />
  </item>
  <item neighborhood="Vila Aurora" zone="Zona Norte" city="São Paulo" state="São Paulo" location_id="BR&gt;Sao Paulo&gt;NULL&gt;Sao Paulo&gt;Zona Norte&gt;Vila Aurora" latitude="-23.475715" longitude="-46.624685" levels="NEIGHBORHOOD">
    <business kind="Rent" />
    <business kind="Sale" />
    <business kind="Development" />
  </item>
  <item neighborhood="São Judas" zone="Zona Sul" city="São Paulo" state="São Paulo" location_id="BR&gt;Sao Paulo&gt;NULL&gt;Sao Paulo&gt;Zona Sul&gt;Sao Judas" latitude="-23.628384" longitude="-46.63554" levels="NEIGHBORHOOD">
    <business kind="Rent" />
    <business kind="Sale" />
    <business kind="Development" />
  </item>
  <item neighborhood="Vila Buenos Aires" zone="Zona Leste" city="São Paulo" state="São Paulo" location_id="BR&gt;Sao Paulo&gt;NULL&gt;Sao Paulo&gt;Zona Leste&gt;Vila Buenos Aires" latitude="-23.508543" longitude="-46.516217" levels="NEIGHBORHOOD">
    <business kind="Rent" />
    <business kind="Sale" />
    <business kind="Development" />
  </item>
  <item neighborhood="Parque Vitória" zone="Zona Norte" city="São Paulo" state="São Paulo" location_id="BR&gt;Sao Paulo&gt;NULL&gt;Sao Paulo&gt;Zona Norte&gt;Parque Vitoria" latitude="-23.471259" longitude="-46.594544" levels="NEIGHBORHOOD">
    <business kind="Rent" />
    <business kind="Sale" />
    <business kind="Development" />
  </item>
  <item neighborhood="Chácara Flora" zone="Zona Sul" city="São Paulo" state="São Paulo" location_id="BR&gt;Sao Paulo&gt;NULL&gt;Sao Paulo&gt;Zona Sul&gt;Chacara Flora" latitude="-23.649702" longitude="-46.686613" levels="NEIGHBORHOOD">
    <business kind="Rent" />
    <business kind="Sale" />
    <business kind="Development" />
  </item>
  <item neighborhood="Parque Boturussu" zone="Zona Leste" city="São Paulo" state="São Paulo" location_id="BR&gt;Sao Paulo&gt;NULL&gt;Sao Paulo&gt;Zona Leste&gt;Parque Boturussu" latitude="-23.497171" longitude="-46.485008" levels="NEIGHBORHOOD">
    <business kind="Rent" />
    <business kind="Sale" />
    <business kind="Development" />
  </item>
  <item neighborhood="Chácara Monte Alegre" zone="Zona Sul" city="São Paulo" state="São Paulo" location_id="BR&gt;Sao Paulo&gt;NULL&gt;Sao Paulo&gt;Zona Sul&gt;Chacara Monte Alegre" latitude="-23.64499" longitude="-46.67657" levels="NEIGHBORHOOD">
    <business kind="Rent" />
    <business kind="Sale" />
    <business kind="Development" />
  </item>
  <item neighborhood="Jardim Vergueiro (Sacomã)" zone="bairros" city="São Paulo" state="São Paulo" location_id="BR&gt;Sao Paulo&gt;NULL&gt;Sao Paulo&gt;Barrios&gt;Jardim Vergueiro Sacoma" latitude="-23.626164" longitude="-46.599968" levels="NEIGHBORHOOD">
    <business kind="Rent" />
    <business kind="Sale" />
    <business kind="Development" />
  </item>
  <item neighborhood="Cidade São Francisco" zone="Zona Oeste" city="São Paulo" state="São Paulo" location_id="BR&gt;Sao Paulo&gt;NULL&gt;Sao Paulo&gt;Zona Oeste&gt;Cidade Sao Francisco" latitude="-23.521604" longitude="-46.494215" levels="NEIGHBORHOOD">
    <business kind="Rent" />
    <business kind="Sale" />
    <business kind="Development" />
  </item>
  <item neighborhood="Vila Curuçá" zone="Zona Leste" city="São Paulo" state="São Paulo" location_id="BR&gt;Sao Paulo&gt;NULL&gt;Sao Paulo&gt;Zona Leste&gt;Vila Curuca" latitude="-23.515988" longitude="-46.428493" levels="NEIGHBORHOOD">
    <business kind="Rent" />
    <business kind="Sale" />
    <business kind="Development" />
  </item>
  <item neighborhood="Cidade Vargas" zone="Zona Sul" city="São Paulo" state="São Paulo" location_id="BR&gt;Sao Paulo&gt;NULL&gt;Sao Paulo&gt;Zona Sul&gt;Cidade Vargas" latitude="-23.647446" longitude="-46.63554" levels="NEIGHBORHOOD">
    <business kind="Rent" />
    <business kind="Sale" />
    <business kind="Development" />
  </item>
  <item neighborhood="Jardim Virgínia Bianca" zone="Zona Norte" city="São Paulo" state="São Paulo" location_id="BR&gt;Sao Paulo&gt;NULL&gt;Sao Paulo&gt;Zona Norte&gt;Jardim Virginia Bianca" latitude="-23.456911" longitude="-46.616676" levels="NEIGHBORHOOD">
    <business kind="Rent" />
    <business kind="Sale" />
    <business kind="Development" />
  </item>
  <item neighborhood="Super Quadra" zone="Zona Sul" city="São Paulo" state="São Paulo" location_id="BR&gt;Sao Paulo&gt;NULL&gt;Sao Paulo&gt;Zona Sul&gt;Super Quadra" latitude="-23.614378" longitude="-46.74664" levels="NEIGHBORHOOD">
    <business kind="Rent" />
    <business kind="Sale" />
    <business kind="Development" />
  </item>
  <item neighborhood="Jardim Esmeralda" zone="Zona Oeste" city="São Paulo" state="São Paulo" location_id="BR&gt;Sao Paulo&gt;NULL&gt;Sao Paulo&gt;Zona Oeste&gt;Jardim Esmeralda" latitude="-23.575575" longitude="-46.756917" levels="NEIGHBORHOOD">
    <business kind="Rent" />
    <business kind="Sale" />
    <business kind="Development" />
  </item>
  <item neighborhood="Vila Industrial" zone="Zona Leste" city="São Paulo" state="São Paulo" location_id="BR&gt;Sao Paulo&gt;NULL&gt;Sao Paulo&gt;Zona Leste&gt;Vila Industrial" latitude="-23.612595" longitude="-46.530103" levels="NEIGHBORHOOD">
    <business kind="Rent" />
    <business kind="Sale" />
    <business kind="Development" />
  </item>
  <item neighborhood="Jardim Morumbi" zone="Zona Oeste" city="São Paulo" state="São Paulo" location_id="BR&gt;Sao Paulo&gt;NULL&gt;Sao Paulo&gt;Zona Oeste&gt;Jardim Morumbi" latitude="-23.6103" longitude="-46.718591" levels="NEIGHBORHOOD">
    <business kind="Rent" />
    <business kind="Sale" />
    <business kind="Development" />
  </item>
  <item neighborhood="Santa Ifigênia" zone="Centro" city="São Paulo" state="São Paulo" location_id="BR&gt;Sao Paulo&gt;NULL&gt;Sao Paulo&gt;Centro&gt;Santa Ifigenia" latitude="-23.537655" longitude="-46.638525" levels="NEIGHBORHOOD">
    <business kind="Rent" />
    <business kind="Sale" />
    <business kind="Development" />
  </item>
  <item neighborhood="Vila Leonor" zone="Zona Norte" city="São Paulo" state="São Paulo" location_id="BR&gt;Sao Paulo&gt;NULL&gt;Sao Paulo&gt;Zona Norte&gt;Vila Leonor" latitude="-23.501613" longitude="-46.597334" levels="NEIGHBORHOOD">
    <business kind="Rent" />
    <business kind="Sale" />
    <business kind="Development" />
  </item>
  <item neighborhood="Jardim São Luís" zone="Zona Sul" city="São Paulo" state="São Paulo" location_id="BR&gt;Sao Paulo&gt;NULL&gt;Sao Paulo&gt;Zona Sul&gt;Jardim Sao Luis" latitude="-23.651376" longitude="-46.733056" levels="NEIGHBORHOOD">
    <business kind="Rent" />
    <business kind="Sale" />
    <business kind="Development" />
  </item>
  <item neighborhood="Vila Marari" zone="Zona Sul" city="São Paulo" state="São Paulo" location_id="BR&gt;Sao Paulo&gt;NULL&gt;Sao Paulo&gt;Zona Sul&gt;Vila Marari" latitude="-23.670956" longitude="-46.662085" levels="NEIGHBORHOOD">
    <business kind="Rent" />
    <business kind="Sale" />
    <business kind="Development" />
  </item>
  <item neighborhood="Vila Dalila" zone="Zona Leste" city="São Paulo" state="São Paulo" location_id="BR&gt;Sao Paulo&gt;NULL&gt;Sao Paulo&gt;Zona Leste&gt;Vila Dalila" latitude="-23.542164" longitude="-46.517465" levels="NEIGHBORHOOD">
    <business kind="Rent" />
    <business kind="Sale" />
    <business kind="Development" />
  </item>
  <item neighborhood="Vila Primavera" zone="Zona Leste" city="São Paulo" state="São Paulo" location_id="BR&gt;Sao Paulo&gt;NULL&gt;Sao Paulo&gt;Zona Leste&gt;Vila Primavera" latitude="-23.590725" longitude="-46.527094" levels="NEIGHBORHOOD">
    <business kind="Rent" />
    <business kind="Sale" />
    <business kind="Development" />
  </item>
  <item neighborhood="Jurubatuba" zone="Zona Sul" city="São Paulo" state="São Paulo" location_id="BR&gt;Sao Paulo&gt;NULL&gt;Sao Paulo&gt;Zona Sul&gt;Jurubatuba" latitude="-23.675263" longitude="-46.699261" levels="NEIGHBORHOOD">
    <business kind="Rent" />
    <business kind="Sale" />
    <business kind="Development" />
  </item>
  <item neighborhood="Vila Progredior" zone="Zona Sul" city="São Paulo" state="São Paulo" location_id="BR&gt;Sao Paulo&gt;NULL&gt;Sao Paulo&gt;Zona Sul&gt;Vila Progredior" latitude="-23.590049" longitude="-46.717634" levels="NEIGHBORHOOD">
    <business kind="Rent" />
    <business kind="Sale" />
    <business kind="Development" />
  </item>
  <item neighborhood="Vila Dos Remedios" zone="Zona Oeste" city="São Paulo" state="São Paulo" location_id="BR&gt;Sao Paulo&gt;NULL&gt;Sao Paulo&gt;Zona Oeste&gt;Vila Dos Remedios" latitude="-23.514041" longitude="-46.745443" levels="NEIGHBORHOOD">
    <business kind="Rent" />
    <business kind="Sale" />
    <business kind="Development" />
  </item>
  <item neighborhood="Cupecê" zone="Zona Sul" city="São Paulo" state="São Paulo" location_id="BR&gt;Sao Paulo&gt;NULL&gt;Sao Paulo&gt;Zona Sul&gt;Cupece" latitude="-23.663547" longitude="-46.669931" levels="NEIGHBORHOOD">
    <business kind="Rent" />
    <business kind="Sale" />
    <business kind="Development" />
  </item>
  <item neighborhood="Vila São José" zone="Zona Sul" city="São Paulo" state="São Paulo" location_id="BR&gt;Sao Paulo&gt;NULL&gt;Sao Paulo&gt;Zona Sul&gt;Vila Sao Jose" latitude="-23.599413" longitude="-46.613832" levels="NEIGHBORHOOD">
    <business kind="Rent" />
    <business kind="Sale" />
    <business kind="Development" />
  </item>
  <item neighborhood="Parque Fongaro" zone="Zona Sul" city="São Paulo" state="São Paulo" location_id="BR&gt;Sao Paulo&gt;NULL&gt;Sao Paulo&gt;Zona Sul&gt;Parque Fongaro" latitude="-23.633212" longitude="-46.594544" levels="NEIGHBORHOOD">
    <business kind="Rent" />
    <business kind="Sale" />
    <business kind="Development" />
  </item>
  <item neighborhood="Jardim Floresta" zone="Zona Sul" city="São Paulo" state="São Paulo" location_id="BR&gt;Sao Paulo&gt;NULL&gt;Sao Paulo&gt;Zona Sul&gt;Jardim Floresta" latitude="-23.502188" longitude="-46.691059" levels="NEIGHBORHOOD">
    <business kind="Rent" />
    <business kind="Sale" />
    <business kind="Development" />
  </item>
  <item neighborhood="Jardim Taquaral" zone="Zona Sul" city="São Paulo" state="São Paulo" location_id="BR&gt;Sao Paulo&gt;NULL&gt;Sao Paulo&gt;Zona Sul&gt;Jardim Taquaral" latitude="-23.664994" longitude="-46.684418" levels="NEIGHBORHOOD">
    <business kind="Rent" />
    <business kind="Sale" />
    <business kind="Development" />
  </item>
  <item neighborhood="Vila Beatriz" zone="Zona Leste" city="São Paulo" state="São Paulo" location_id="BR&gt;Sao Paulo&gt;NULL&gt;Sao Paulo&gt;Zona Leste&gt;Vila Beatriz" latitude="-23.52698" longitude="-46.533714" levels="NEIGHBORHOOD">
    <business kind="Rent" />
    <business kind="Sale" />
    <business kind="Development" />
  </item>
  <item neighborhood="Vila Isa" zone="Zona Sul" city="São Paulo" state="São Paulo" location_id="BR&gt;Sao Paulo&gt;NULL&gt;Sao Paulo&gt;Zona Sul&gt;Vila Isa" latitude="-23.670663" longitude="-46.690455" levels="NEIGHBORHOOD">
    <business kind="Rent" />
    <business kind="Sale" />
    <business kind="Development" />
  </item>
  <item neighborhood="São Miguel Paulista" zone="Zona Leste" city="São Paulo" state="São Paulo" location_id="BR&gt;Sao Paulo&gt;NULL&gt;Sao Paulo&gt;Zona Leste&gt;Sao Miguel Paulista" latitude="-23.508987" longitude="-46.435701" levels="NEIGHBORHOOD">
    <business kind="Rent" />
    <business kind="Sale" />
    <business kind="Development" />
  </item>
  <item neighborhood="Vila Nhocune" zone="Zona Leste" city="São Paulo" state="São Paulo" location_id="BR&gt;Sao Paulo&gt;NULL&gt;Sao Paulo&gt;Zona Leste&gt;Vila Nhocune" latitude="-23.544182" longitude="-46.495261" levels="NEIGHBORHOOD">
    <business kind="Rent" />
    <business kind="Sale" />
    <business kind="Development" />
  </item>
  <item neighborhood="Jardim Colombo" zone="Zona Sul" city="São Paulo" state="São Paulo" location_id="BR&gt;Sao Paulo&gt;NULL&gt;Sao Paulo&gt;Zona Sul&gt;Jardim Colombo" latitude="-23.601496" longitude="-46.73697" levels="NEIGHBORHOOD">
    <business kind="Rent" />
    <business kind="Sale" />
    <business kind="Development" />
  </item>
  <item neighborhood="Vila Ivone" zone="Zona Leste" city="São Paulo" state="São Paulo" location_id="BR&gt;Sao Paulo&gt;NULL&gt;Sao Paulo&gt;Zona Leste&gt;Vila Ivone" latitude="-23.580887" longitude="-46.553581" levels="NEIGHBORHOOD">
    <business kind="Rent" />
    <business kind="Sale" />
    <business kind="Development" />
  </item>
  <item neighborhood="Cidade Mae Do Ceu" zone="Zona Leste" city="São Paulo" state="São Paulo" location_id="BR&gt;Sao Paulo&gt;NULL&gt;Sao Paulo&gt;Zona Leste&gt;Cidade Mae Do Ceu" latitude="-23.535245" longitude="-46.575463" levels="NEIGHBORHOOD">
    <business kind="Rent" />
    <business kind="Sale" />
    <business kind="Development" />
  </item>
  <item neighborhood="Santa Terezinha" zone="Zona Norte" city="São Paulo" state="São Paulo" location_id="BR&gt;Sao Paulo&gt;NULL&gt;Sao Paulo&gt;Zona Norte&gt;Santa Terezinha" latitude="-23.492179" longitude="-46.636143" levels="NEIGHBORHOOD">
    <business kind="Rent" />
    <business kind="Sale" />
    <business kind="Development" />
  </item>
  <item neighborhood="Jardim Guapira" zone="Zona Norte" city="São Paulo" state="São Paulo" location_id="BR&gt;Sao Paulo&gt;NULL&gt;Sao Paulo&gt;Zona Norte&gt;Jardim Guapira" latitude="-23.460067" longitude="-46.589723" levels="NEIGHBORHOOD">
    <business kind="Rent" />
    <business kind="Sale" />
    <business kind="Development" />
  </item>
  <item neighborhood="Jardim Penha" zone="Zona Leste" city="São Paulo" state="São Paulo" location_id="BR&gt;Sao Paulo&gt;NULL&gt;Sao Paulo&gt;Zona Leste&gt;Jardim Penha" latitude="-23.492744" longitude="-46.493873" levels="NEIGHBORHOOD">
    <business kind="Rent" />
    <business kind="Sale" />
    <business kind="Development" />
  </item>
  <item neighborhood="Jardim Paraíso" zone="Zona Norte" city="São Paulo" state="São Paulo" location_id="BR&gt;Sao Paulo&gt;NULL&gt;Sao Paulo&gt;Zona Norte&gt;Jardim Paraiso" latitude="-23.475772" longitude="-46.628303" levels="NEIGHBORHOOD">
    <business kind="Rent" />
    <business kind="Sale" />
    <business kind="Development" />
  </item>
  <item neighborhood="Guaianases" zone="Zona Leste" city="São Paulo" state="São Paulo" location_id="BR&gt;Sao Paulo&gt;NULL&gt;Sao Paulo&gt;Zona Leste&gt;Guaianases" latitude="-23.550708" longitude="-46.420686" levels="NEIGHBORHOOD">
    <business kind="Rent" />
    <business kind="Sale" />
    <business kind="Development" />
  </item>
  <item neighborhood="Parque da Vila Prudente" zone="Zona Leste" city="São Paulo" state="São Paulo" location_id="BR&gt;Sao Paulo&gt;NULL&gt;Sao Paulo&gt;Zona Leste&gt;Parque da Vila Prudente" latitude="-23.589722" longitude="-46.576346" levels="NEIGHBORHOOD">
    <business kind="Rent" />
    <business kind="Sale" />
    <business kind="Development" />
  </item>
  <item neighborhood="Jardim Santa Emília" zone="Zona Sul" city="São Paulo" state="São Paulo" location_id="BR&gt;Sao Paulo&gt;NULL&gt;Sao Paulo&gt;Zona Sul&gt;Jardim Santa Emilia" latitude="-23.644414" longitude="-46.599365" levels="NEIGHBORHOOD">
    <business kind="Rent" />
    <business kind="Sale" />
    <business kind="Development" />
  </item>
  <item neighborhood="Parque Edu Chaves" zone="Zona Norte" city="São Paulo" state="São Paulo" location_id="BR&gt;Sao Paulo&gt;NULL&gt;Sao Paulo&gt;Zona Norte&gt;Parque Edu Chaves" latitude="-23.476888" longitude="-46.564643" levels="NEIGHBORHOOD">
    <business kind="Rent" />
    <business kind="Sale" />
    <business kind="Development" />
  </item>
  <item neighborhood="Itaim Paulista" zone="Zona Leste" city="São Paulo" state="São Paulo" location_id="BR&gt;Sao Paulo&gt;NULL&gt;Sao Paulo&gt;Zona Leste&gt;Itaim Paulista" latitude="-23.500719" longitude="-46.395185" levels="NEIGHBORHOOD">
    <business kind="Rent" />
    <business kind="Sale" />
    <business kind="Development" />
  </item>
  <item neighborhood="Vila Santana" zone="Zona Leste" city="São Paulo" state="São Paulo" location_id="BR&gt;Sao Paulo&gt;NULL&gt;Sao Paulo&gt;Zona Leste&gt;Vila Santana" latitude="-23.51865" longitude="-46.533714" levels="NEIGHBORHOOD">
    <business kind="Rent" />
    <business kind="Sale" />
    <business kind="Development" />
  </item>
  <item neighborhood="Vila Marieta" zone="Zona Leste" city="São Paulo" state="São Paulo" location_id="BR&gt;Sao Paulo&gt;NULL&gt;Sao Paulo&gt;Zona Leste&gt;Vila Marieta" latitude="-23.517659" longitude="-46.522279" levels="NEIGHBORHOOD">
    <business kind="Rent" />
    <business kind="Sale" />
    <business kind="Development" />
  </item>
  <item neighborhood="Jardim Popular" zone="Zona Leste" city="São Paulo" state="São Paulo" location_id="BR&gt;Sao Paulo&gt;NULL&gt;Sao Paulo&gt;Zona Leste&gt;Jardim Popular" latitude="-23.516571" longitude="-46.505433" levels="NEIGHBORHOOD">
    <business kind="Rent" />
    <business kind="Sale" />
    <business kind="Development" />
  </item>
  <item neighborhood="Jardim Sul" zone="Zona Sul" city="São Paulo" state="São Paulo" location_id="BR&gt;Sao Paulo&gt;NULL&gt;Sao Paulo&gt;Zona Sul&gt;Jardim Sul" latitude="-23.631509" longitude="-46.736743" levels="NEIGHBORHOOD">
    <business kind="Rent" />
    <business kind="Sale" />
    <business kind="Development" />
  </item>
  <item neighborhood="Vila Campestre" zone="Zona Sul" city="São Paulo" state="São Paulo" location_id="BR&gt;Sao Paulo&gt;NULL&gt;Sao Paulo&gt;Zona Sul&gt;Vila Campestre" latitude="-23.658265" longitude="-46.64743" levels="NEIGHBORHOOD">
    <business kind="Rent" />
    <business kind="Sale" />
    <business kind="Development" />
  </item>
  <item neighborhood="Vila Paranaguá" zone="Zona Leste" city="São Paulo" state="São Paulo" location_id="BR&gt;Sao Paulo&gt;NULL&gt;Sao Paulo&gt;Zona Leste&gt;Vila Paranagua" latitude="-23.498274" longitude="-46.472625" levels="NEIGHBORHOOD">
    <business kind="Rent" />
    <business kind="Sale" />
    <business kind="Development" />
  </item>
  <item neighborhood="Sítio do Mandaqui" zone="Zona Norte" city="São Paulo" state="São Paulo" location_id="BR&gt;Sao Paulo&gt;NULL&gt;Sao Paulo&gt;Zona Norte&gt;Sitio do Mandaqui" latitude="-23.484213" longitude="-46.659671" levels="NEIGHBORHOOD">
    <business kind="Rent" />
    <business kind="Sale" />
    <business kind="Development" />
  </item>
  <item neighborhood="Jardim Ester Yolanda" zone="Zona Oeste" city="São Paulo" state="São Paulo" location_id="BR&gt;Sao Paulo&gt;NULL&gt;Sao Paulo&gt;Zona Oeste&gt;Jardim Ester Yolanda" latitude="-23.583596" longitude="-46.76115" levels="NEIGHBORHOOD">
    <business kind="Rent" />
    <business kind="Sale" />
    <business kind="Development" />
  </item>
  <item neighborhood="Vila Zelina" zone="Zona Leste" city="São Paulo" state="São Paulo" location_id="BR&gt;Sao Paulo&gt;NULL&gt;Sao Paulo&gt;Zona Leste&gt;Vila Zelina" latitude="-23.585499" longitude="-46.590024" levels="NEIGHBORHOOD">
    <business kind="Rent" />
    <business kind="Sale" />
    <business kind="Development" />
  </item>
  <item neighborhood="Cidade Satélite Santa Bárbara" zone="Zona Leste" city="São Paulo" state="São Paulo" location_id="BR&gt;Sao Paulo&gt;NULL&gt;Sao Paulo&gt;Zona Leste&gt;Cidade Satelite Santa Barbara" latitude="-23.61034" longitude="-46.464257" levels="NEIGHBORHOOD">
    <business kind="Rent" />
    <business kind="Sale" />
    <business kind="Development" />
  </item>
  <item neighborhood="Jardim Maria Estela" zone="Zona Sul" city="São Paulo" state="São Paulo" location_id="BR&gt;Sao Paulo&gt;NULL&gt;Sao Paulo&gt;Zona Sul&gt;Jardim Maria Estela" latitude="-23.634368" longitude="-46.599914" levels="NEIGHBORHOOD">
    <business kind="Rent" />
    <business kind="Sale" />
    <business kind="Development" />
  </item>
  <item neighborhood="Vila Amália" zone="Zona Norte" city="São Paulo" state="São Paulo" location_id="BR&gt;Sao Paulo&gt;NULL&gt;Sao Paulo&gt;Zona Norte&gt;Vila Amalia" latitude="-23.466584" longitude="-46.650017" levels="NEIGHBORHOOD">
    <business kind="Rent" />
    <business kind="Sale" />
    <business kind="Development" />
  </item>
  <item neighborhood="Barro Branco" zone="Zona Norte" city="São Paulo" state="São Paulo" location_id="BR&gt;Sao Paulo&gt;NULL&gt;Sao Paulo&gt;Zona Norte&gt;Barro Branco" latitude="-23.469944" longitude="-46.61142" levels="NEIGHBORHOOD">
    <business kind="Rent" />
    <business kind="Sale" />
    <business kind="Development" />
  </item>
  <item neighborhood="Sapopemba" zone="Zona Leste" city="São Paulo" state="São Paulo" location_id="BR&gt;Sao Paulo&gt;NULL&gt;Sao Paulo&gt;Zona Leste&gt;Sapopemba" latitude="-23.610541" longitude="-46.493865" levels="NEIGHBORHOOD">
    <business kind="Rent" />
    <business kind="Sale" />
    <business kind="Development" />
  </item>
  <item neighborhood="Jardim Germania" zone="Zona Sul" city="São Paulo" state="São Paulo" location_id="BR&gt;Sao Paulo&gt;NULL&gt;Sao Paulo&gt;Zona Sul&gt;Jardim Germania" latitude="-23.656729" longitude="-46.758731" levels="NEIGHBORHOOD">
    <business kind="Rent" />
    <business kind="Sale" />
    <business kind="Development" />
  </item>
  <item neighborhood="Parque Císper" zone="Zona Leste" city="São Paulo" state="São Paulo" location_id="BR&gt;Sao Paulo&gt;NULL&gt;Sao Paulo&gt;Zona Leste&gt;Parque Cisper" latitude="-23.492744" longitude="-46.493873" levels="NEIGHBORHOOD">
    <business kind="Rent" />
    <business kind="Sale" />
    <business kind="Development" />
  </item>
  <item neighborhood="Jardim Umarizal" zone="Zona Sul" city="São Paulo" state="São Paulo" location_id="BR&gt;Sao Paulo&gt;NULL&gt;Sao Paulo&gt;Zona Sul&gt;Jardim Umarizal" latitude="-23.62249" longitude="-46.756313" levels="NEIGHBORHOOD">
    <business kind="Rent" />
    <business kind="Sale" />
    <business kind="Development" />
  </item>
  <item neighborhood="Vila Independência" zone="Zona Sul" city="São Paulo" state="São Paulo" location_id="BR&gt;Sao Paulo&gt;NULL&gt;Sao Paulo&gt;Zona Sul&gt;Vila Independencia" latitude="-23.595622" longitude="-46.59171" levels="NEIGHBORHOOD">
    <business kind="Rent" />
    <business kind="Sale" />
    <business kind="Development" />
  </item>
  <item neighborhood="São Mateus" zone="Zona Leste" city="São Paulo" state="São Paulo" location_id="BR&gt;Sao Paulo&gt;NULL&gt;Sao Paulo&gt;Zona Leste&gt;Sao Mateus" latitude="-23.604694" longitude="-46.480707" levels="NEIGHBORHOOD">
    <business kind="Rent" />
    <business kind="Sale" />
    <business kind="Development" />
  </item>
  <item neighborhood="Jardim das Perdizes" zone="Zona Oeste" city="São Paulo" state="São Paulo" location_id="BR&gt;Sao Paulo&gt;NULL&gt;Sao Paulo&gt;Zona Oeste&gt;Jardim das Perdizes" latitude="-23.612476" longitude="-46.661547" levels="NEIGHBORHOOD">
    <business kind="Rent" />
    <business kind="Sale" />
    <business kind="Development" />
  </item>
  <item neighborhood="Vila São Geraldo" zone="Zona Leste" city="São Paulo" state="São Paulo" location_id="BR&gt;Sao Paulo&gt;NULL&gt;Sao Paulo&gt;Zona Leste&gt;Vila Sao Geraldo" latitude="-23.518033" longitude="-46.543947" levels="NEIGHBORHOOD">
    <business kind="Rent" />
    <business kind="Sale" />
    <business kind="Development" />
  </item>
  <item neighborhood="Engenheiro Goulart" zone="Zona Leste" city="São Paulo" state="São Paulo" location_id="BR&gt;Sao Paulo&gt;NULL&gt;Sao Paulo&gt;Zona Leste&gt;Engenheiro Goulart" latitude="-23.500876" longitude="-46.515059" levels="NEIGHBORHOOD">
    <business kind="Rent" />
    <business kind="Sale" />
    <business kind="Development" />
  </item>
  <item neighborhood="Parada XV de Novembro" zone="Zona Leste" city="São Paulo" state="São Paulo" location_id="BR&gt;Sao Paulo&gt;NULL&gt;Sao Paulo&gt;Zona Leste&gt;Parada XV de Novembro" latitude="-23.53157" longitude="-46.436425" levels="NEIGHBORHOOD">
    <business kind="Rent" />
    <business kind="Sale" />
    <business kind="Development" />
  </item>
  <item neighborhood="Pari" zone="Centro" city="São Paulo" state="São Paulo" location_id="BR&gt;Sao Paulo&gt;NULL&gt;Sao Paulo&gt;Centro&gt;Pari" latitude="-23.535686" longitude="-46.601776" levels="NEIGHBORHOOD">
    <business kind="Rent" />
    <business kind="Sale" />
    <business kind="Development" />
  </item>
  <item neighborhood="Vila Mafra" zone="Zona Leste" city="São Paulo" state="São Paulo" location_id="BR&gt;Sao Paulo&gt;NULL&gt;Sao Paulo&gt;Zona Leste&gt;Vila Mafra" latitude="-23.560139" longitude="-46.546958" levels="NEIGHBORHOOD">
    <business kind="Rent" />
    <business kind="Sale" />
    <business kind="Development" />
  </item>
  <item neighborhood="Vila Brasilina" zone="Zona Sul" city="São Paulo" state="São Paulo" location_id="BR&gt;Sao Paulo&gt;NULL&gt;Sao Paulo&gt;Zona Sul&gt;Vila Brasilina" latitude="-23.628837" longitude="-46.616243" levels="NEIGHBORHOOD">
    <business kind="Rent" />
    <business kind="Sale" />
    <business kind="Development" />
  </item>
  <item neighborhood="Conjunto Residencial Vista Verde" zone="Zona Norte" city="São Paulo" state="São Paulo" location_id="BR&gt;Sao Paulo&gt;NULL&gt;Sao Paulo&gt;Zona Norte&gt;Conjunto Residencial Vista Verde" latitude="-23.475284" longitude="-46.751476" levels="NEIGHBORHOOD">
    <business kind="Rent" />
    <business kind="Sale" />
    <business kind="Development" />
  </item>
  <item neighborhood="Vila Água Funda" zone="Zona Sul" city="São Paulo" state="São Paulo" location_id="BR&gt;Sao Paulo&gt;NULL&gt;Sao Paulo&gt;Zona Sul&gt;Vila Agua Funda" latitude="-23.63373" longitude="-46.623479" levels="NEIGHBORHOOD">
    <business kind="Rent" />
    <business kind="Sale" />
    <business kind="Development" />
  </item>
  <item neighborhood="Burgo Paulista" zone="Zona Leste" city="São Paulo" state="São Paulo" location_id="BR&gt;Sao Paulo&gt;NULL&gt;Sao Paulo&gt;Zona Leste&gt;Burgo Paulista" latitude="-23.518568" longitude="-46.483781" levels="NEIGHBORHOOD">
    <business kind="Rent" />
    <business kind="Sale" />
    <business kind="Development" />
  </item>
  <item neighborhood="Jardim Nossa Senhora do Carmo" zone="Zona Leste" city="São Paulo" state="São Paulo" location_id="BR&gt;Sao Paulo&gt;NULL&gt;Sao Paulo&gt;Zona Leste&gt;Jardim Nossa Senhora do Carmo" latitude="-23.567812" longitude="-46.472324" levels="NEIGHBORHOOD">
    <business kind="Rent" />
    <business kind="Sale" />
    <business kind="Development" />
  </item>
  <item neighborhood="Conceição" zone="Zona Sul" city="São Paulo" state="São Paulo" location_id="BR&gt;Sao Paulo&gt;NULL&gt;Sao Paulo&gt;Zona Sul&gt;Conceicao" latitude="-23.636496" longitude="-46.645191" levels="NEIGHBORHOOD">
    <business kind="Rent" />
    <business kind="Sale" />
    <business kind="Development" />
  </item>
  <item neighborhood="Colonia - Zona Leste " zone="Zona Leste" city="São Paulo" state="São Paulo" location_id="BR&gt;Sao Paulo&gt;NULL&gt;Sao Paulo&gt;Zona Leste&gt;Colonia - Zona Leste" latitude="-23.577347" longitude="-46.430859" levels="NEIGHBORHOOD">
    <business kind="Rent" />
    <business kind="Sale" />
    <business kind="Development" />
  </item>
  <item neighborhood="Vila Santa Teresa" zone="Zona Sul" city="São Paulo" state="São Paulo" location_id="BR&gt;Sao Paulo&gt;NULL&gt;Sao Paulo&gt;Zona Sul&gt;Vila Santa Teresa" latitude="-23.64834" longitude="-46.596954" levels="NEIGHBORHOOD">
    <business kind="Rent" />
    <business kind="Sale" />
    <business kind="Development" />
  </item>
  <item neighborhood="Vila Polopoli" zone="Zona Oeste" city="São Paulo" state="São Paulo" location_id="BR&gt;Sao Paulo&gt;NULL&gt;Sao Paulo&gt;Zona Oeste&gt;Vila Polopoli" latitude="-23.576178" longitude="-46.744827" levels="NEIGHBORHOOD">
    <business kind="Rent" />
    <business kind="Sale" />
    <business kind="Development" />
  </item>
  <item neighborhood="Vila Moreira" zone="Zona Leste" city="São Paulo" state="São Paulo" location_id="BR&gt;Sao Paulo&gt;NULL&gt;Sao Paulo&gt;Zona Leste&gt;Vila Moreira" latitude="-23.524712" longitude="-46.563216" levels="NEIGHBORHOOD">
    <business kind="Rent" />
    <business kind="Sale" />
    <business kind="Development" />
  </item>
  <item neighborhood="Vila Ede" zone="Zona Norte" city="São Paulo" state="São Paulo" location_id="BR&gt;Sao Paulo&gt;NULL&gt;Sao Paulo&gt;Zona Norte&gt;Vila Ede" latitude="-23.494242" longitude="-46.592133" levels="NEIGHBORHOOD">
    <business kind="Rent" />
    <business kind="Sale" />
    <business kind="Development" />
  </item>
  <item neighborhood="Lar São Paulo" zone="Zona Oeste" city="São Paulo" state="São Paulo" location_id="BR&gt;Sao Paulo&gt;NULL&gt;Sao Paulo&gt;Zona Oeste&gt;Lar Sao Paulo" latitude="-23.609518" longitude="-46.7412" levels="NEIGHBORHOOD">
    <business kind="Rent" />
    <business kind="Sale" />
    <business kind="Development" />
  </item>
  <item neighborhood="Jardim São Savério" zone="Zona Sul" city="São Paulo" state="São Paulo" location_id="BR&gt;Sao Paulo&gt;NULL&gt;Sao Paulo&gt;Zona Sul&gt;Jardim Sao Saverio" latitude="-23.65491" longitude="-46.609009" levels="NEIGHBORHOOD">
    <business kind="Rent" />
    <business kind="Sale" />
    <business kind="Development" />
  </item>
  <item neighborhood="Conjunto Residencial José Bonifácio" zone="Zona Leste" city="São Paulo" state="São Paulo" location_id="BR&gt;Sao Paulo&gt;NULL&gt;Sao Paulo&gt;Zona Leste&gt;Conjunto Residencial Jose Bonifacio" latitude="-23.546293" longitude="-46.435701" levels="NEIGHBORHOOD">
    <business kind="Rent" />
    <business kind="Sale" />
    <business kind="Development" />
  </item>
  <item neighborhood="Vila Santa Isabel" zone="Zona Leste" city="São Paulo" state="São Paulo" location_id="BR&gt;Sao Paulo&gt;NULL&gt;Sao Paulo&gt;Zona Leste&gt;Vila Santa Isabel" latitude="-23.551636" longitude="-46.536032" levels="NEIGHBORHOOD">
    <business kind="Rent" />
    <business kind="Sale" />
    <business kind="Development" />
  </item>
  <item neighborhood="Vila Sabrina" zone="Zona Norte" city="São Paulo" state="São Paulo" location_id="BR&gt;Sao Paulo&gt;NULL&gt;Sao Paulo&gt;Zona Norte&gt;Vila Sabrina" latitude="-23.496263" longitude="-46.570444" levels="NEIGHBORHOOD">
    <business kind="Rent" />
    <business kind="Sale" />
    <business kind="Development" />
  </item>
  <item neighborhood="Vila Pereira Barreto" zone="Zona Oeste" city="São Paulo" state="São Paulo" location_id="BR&gt;Sao Paulo&gt;NULL&gt;Sao Paulo&gt;Zona Oeste&gt;Vila Pereira Barreto" latitude="-23.495414" longitude="-46.715519" levels="NEIGHBORHOOD">
    <business kind="Rent" />
    <business kind="Sale" />
    <business kind="Development" />
  </item>
  <item neighborhood="Jardim do Lago" zone="Zona Oeste" city="São Paulo" state="São Paulo" location_id="BR&gt;Sao Paulo&gt;NULL&gt;Sao Paulo&gt;Zona Oeste&gt;Jardim do Lago" latitude="-23.580606" longitude="-46.773244" levels="NEIGHBORHOOD">
    <business kind="Rent" />
    <business kind="Sale" />
    <business kind="Development" />
  </item>
  <item neighborhood="Pedreira" zone="Zona Sul" city="São Paulo" state="São Paulo" location_id="BR&gt;Sao Paulo&gt;NULL&gt;Sao Paulo&gt;Zona Sul&gt;Pedreira" latitude="-23.691959" longitude="-46.681399" levels="NEIGHBORHOOD">
    <business kind="Rent" />
    <business kind="Sale" />
    <business kind="Development" />
  </item>
  <item neighborhood="Vila Bela Vista" zone="Zona Norte" city="São Paulo" state="São Paulo" location_id="BR&gt;Sao Paulo&gt;NULL&gt;Sao Paulo&gt;Zona Norte&gt;Vila Bela Vista" latitude="-23.466697" longitude="-46.657258" levels="NEIGHBORHOOD">
    <business kind="Rent" />
    <business kind="Sale" />
    <business kind="Development" />
  </item>
  <item neighborhood="Vila Maria Alta" zone="Zona Norte" city="São Paulo" state="São Paulo" location_id="BR&gt;Sao Paulo&gt;NULL&gt;Sao Paulo&gt;Zona Norte&gt;Vila Maria Alta" latitude="-23.506789" longitude="-46.589384" levels="NEIGHBORHOOD">
    <business kind="Rent" />
    <business kind="Sale" />
    <business kind="Development" />
  </item>
  <item neighborhood="Jardim Nordeste" zone="Zona Leste" city="São Paulo" state="São Paulo" location_id="BR&gt;Sao Paulo&gt;NULL&gt;Sao Paulo&gt;Zona Leste&gt;Jardim Nordeste" latitude="-23.530461" longitude="-46.483781" levels="NEIGHBORHOOD">
    <business kind="Rent" />
    <business kind="Sale" />
    <business kind="Development" />
  </item>
  <item neighborhood="Jardim Ubirajara" zone="Zona Sul" city="São Paulo" state="São Paulo" location_id="BR&gt;Sao Paulo&gt;NULL&gt;Sao Paulo&gt;Zona Sul&gt;Jardim Ubirajara" latitude="-23.687062" longitude="-46.674156" levels="NEIGHBORHOOD">
    <business kind="Rent" />
    <business kind="Sale" />
    <business kind="Development" />
  </item>
  <item neighborhood="Vila Rio Branco" zone="Zona Leste" city="São Paulo" state="São Paulo" location_id="BR&gt;Sao Paulo&gt;NULL&gt;Sao Paulo&gt;Zona Leste&gt;Vila Rio Branco" latitude="-23.510851" longitude="-46.495809" levels="NEIGHBORHOOD">
    <business kind="Rent" />
    <business kind="Sale" />
    <business kind="Development" />
  </item>
  <item neighborhood="Vila Palmeiras" zone="Zona Norte" city="São Paulo" state="São Paulo" location_id="BR&gt;Sao Paulo&gt;NULL&gt;Sao Paulo&gt;Zona Norte&gt;Vila Palmeiras" latitude="-23.487302" longitude="-46.704949" levels="NEIGHBORHOOD">
    <business kind="Rent" />
    <business kind="Sale" />
    <business kind="Development" />
  </item>
  <item neighborhood="Sítio da Figueira" zone="Zona Leste" city="São Paulo" state="São Paulo" location_id="BR&gt;Sao Paulo&gt;NULL&gt;Sao Paulo&gt;Zona Leste&gt;Sitio da Figueira" latitude="-23.604594" longitude="-46.548162" levels="NEIGHBORHOOD">
    <business kind="Rent" />
    <business kind="Sale" />
    <business kind="Development" />
  </item>
  <item neighborhood="Vila Liviero" zone="Zona Sul" city="São Paulo" state="São Paulo" location_id="BR&gt;Sao Paulo&gt;NULL&gt;Sao Paulo&gt;Zona Sul&gt;Vila Liviero" latitude="-23.647165" longitude="-46.594685" levels="NEIGHBORHOOD">
    <business kind="Rent" />
    <business kind="Sale" />
    <business kind="Development" />
  </item>
  <item neighborhood="Parque Colonial" zone="bairros" city="São Paulo" state="São Paulo" location_id="BR&gt;Sao Paulo&gt;NULL&gt;Sao Paulo&gt;Barrios&gt;Parque Colonial" latitude="-23.605606" longitude="-46.474162" levels="NEIGHBORHOOD">
    <business kind="Rent" />
    <business kind="Sale" />
    <business kind="Development" />
  </item>
  <item neighborhood="Jardim Danfer" zone="Zona Leste" city="São Paulo" state="São Paulo" location_id="BR&gt;Sao Paulo&gt;NULL&gt;Sao Paulo&gt;Zona Leste&gt;Jardim Danfer" latitude="-23.500751" longitude="-46.507839" levels="NEIGHBORHOOD">
    <business kind="Rent" />
    <business kind="Sale" />
    <business kind="Development" />
  </item>
</inputs>