<?xml version="1.0" encoding="utf-8"?>
<inputs xmlns:xsi="http://www.w3.org/2001/XMLSchema-instance" xmlns:xsd="http://www.w3.org/2001/XMLSchema">
  <item neighborhood="Jardim Monte Verde" zone="Zona Sul" city="São Paulo" state="São Paulo" location_id="BR&gt;Sao Paulo&gt;NULL&gt;Sao Paulo&gt;Zona Sul&gt;Jardim Monte Verde" latitude="-23.755183" longitude="-46.662688" levels="NEIGHBORHOOD">
    <business kind="Rent" />
    <business kind="Sale" />
    <business kind="Development" />
  </item>
  <item neighborhood="Jardim Limoeiro" zone="Zona Leste" city="São Paulo" state="São Paulo" location_id="BR&gt;Sao Paulo&gt;NULL&gt;Sao Paulo&gt;Zona Leste&gt;Jardim Limoeiro" latitude="-23.621842" longitude="-46.411678" levels="NEIGHBORHOOD">
    <business kind="Rent" />
    <business kind="Sale" />
    <business kind="Development" />
  </item>
  <item neighborhood="Vila Progresso" zone="Zona Norte" city="São Paulo" state="São Paulo" location_id="BR&gt;Sao Paulo&gt;NULL&gt;Sao Paulo&gt;Zona Norte&gt;Vila Progresso" latitude="-23.47463" longitude="-46.707969" levels="NEIGHBORHOOD">
    <business kind="Rent" />
    <business kind="Sale" />
    <business kind="Development" />
  </item>
  <item neighborhood="Vila Americana" zone="Zona Leste" city="São Paulo" state="São Paulo" location_id="BR&gt;Sao Paulo&gt;NULL&gt;Sao Paulo&gt;Zona Leste&gt;Vila Americana" latitude="-23.494819" longitude="-46.441108" levels="NEIGHBORHOOD">
    <business kind="Rent" />
    <business kind="Sale" />
    <business kind="Development" />
  </item>
  <item neighborhood="Jardim Bandeirantes" zone="Zona Leste" city="São Paulo" state="São Paulo" location_id="BR&gt;Sao Paulo&gt;NULL&gt;Sao Paulo&gt;Zona Leste&gt;Jardim Bandeirantes" latitude="-23.460891" longitude="-46.728444" levels="NEIGHBORHOOD">
    <business kind="Rent" />
    <business kind="Sale" />
    <business kind="Development" />
  </item>
  <item neighborhood="Vila Teresinha" zone="Zona Norte" city="São Paulo" state="São Paulo" location_id="BR&gt;Sao Paulo&gt;NULL&gt;Sao Paulo&gt;Zona Norte&gt;Vila Teresinha" latitude="-23.45697" longitude="-46.696494" levels="NEIGHBORHOOD">
    <business kind="Rent" />
    <business kind="Sale" />
    <business kind="Development" />
  </item>
  <item neighborhood="Jardim Marquesa" zone="Zona Sul" city="São Paulo" state="São Paulo" location_id="BR&gt;Sao Paulo&gt;NULL&gt;Sao Paulo&gt;Zona Sul&gt;Jardim Marquesa" latitude="-23.694781" longitude="-46.751476" levels="NEIGHBORHOOD">
    <business kind="Rent" />
    <business kind="Sale" />
    <business kind="Development" />
  </item>
  <item neighborhood="Jardim Indaia" zone="Zona Leste" city="São Paulo" state="São Paulo" location_id="BR&gt;Sao Paulo&gt;NULL&gt;Sao Paulo&gt;Zona Leste&gt;Jardim Indaia" latitude="-23.518731" longitude="-46.395431" levels="NEIGHBORHOOD">
    <business kind="Rent" />
    <business kind="Sale" />
    <business kind="Development" />
  </item>
  <item neighborhood="Jardim Zilda" zone="Zona Sul" city="São Paulo" state="São Paulo" location_id="BR&gt;Sao Paulo&gt;NULL&gt;Sao Paulo&gt;Zona Sul&gt;Jardim Zilda" latitude="-21.292246" longitude="-50.342843" levels="NEIGHBORHOOD">
    <business kind="Rent" />
    <business kind="Sale" />
    <business kind="Development" />
  </item>
  <item neighborhood="Vila Aurea" zone="Zona Leste" city="São Paulo" state="São Paulo" location_id="BR&gt;Sao Paulo&gt;NULL&gt;Sao Paulo&gt;Zona Leste&gt;Vila Aurea" latitude="-23.552916" longitude="-46.411678" levels="NEIGHBORHOOD">
    <business kind="Rent" />
    <business kind="Sale" />
    <business kind="Development" />
  </item>
  <item neighborhood="Vila Franci" zone="Zona Leste" city="São Paulo" state="São Paulo" location_id="BR&gt;Sao Paulo&gt;NULL&gt;Sao Paulo&gt;Zona Leste&gt;Vila Franci" latitude="-23.506345" longitude="-46.510245" levels="NEIGHBORHOOD">
    <business kind="Rent" />
    <business kind="Sale" />
    <business kind="Development" />
  </item>
  <item neighborhood="Jardim São Vicente" zone="Zona Leste" city="São Paulo" state="São Paulo" location_id="BR&gt;Sao Paulo&gt;NULL&gt;Sao Paulo&gt;Zona Leste&gt;Jardim Sao Vicente" latitude="-23.49938" longitude="-46.430295" levels="NEIGHBORHOOD">
    <business kind="Rent" />
    <business kind="Sale" />
    <business kind="Development" />
  </item>
  <item neighborhood="Conjunto Residencial Alpes do Jaraguá" zone="Zona Oeste" city="São Paulo" state="São Paulo" location_id="BR&gt;Sao Paulo&gt;NULL&gt;Sao Paulo&gt;Zona Oeste&gt;Conjunto Residencial Alpes do Jaragua" latitude="-23.44668" longitude="-46.75329" levels="NEIGHBORHOOD">
    <business kind="Rent" />
    <business kind="Sale" />
    <business kind="Development" />
  </item>
  <item neighborhood="Jardim Sul São Paulo " zone="Zona Sul" city="São Paulo" state="São Paulo" location_id="BR&gt;Sao Paulo&gt;NULL&gt;Sao Paulo&gt;Zona Sul&gt;Jardim Sul Sao Paulo" latitude="-23.670887" longitude="-46.636143" levels="NEIGHBORHOOD">
    <business kind="Rent" />
    <business kind="Sale" />
    <business kind="Development" />
  </item>
  <item neighborhood="Vila Santista" zone="Zona Norte" city="São Paulo" state="São Paulo" location_id="BR&gt;Sao Paulo&gt;NULL&gt;Sao Paulo&gt;Zona Norte&gt;Vila Santista" latitude="-23.494306" longitude="-46.669931" levels="NEIGHBORHOOD">
    <business kind="Rent" />
    <business kind="Sale" />
    <business kind="Development" />
  </item>
  <item neighborhood="Jardim Maria Amalia" zone="Zona Sul" city="São Paulo" state="São Paulo" location_id="BR&gt;Sao Paulo&gt;NULL&gt;Sao Paulo&gt;Zona Sul&gt;Jardim Maria Amalia" latitude="-23.774009" longitude="-46.713405" levels="NEIGHBORHOOD">
    <business kind="Rent" />
    <business kind="Sale" />
    <business kind="Development" />
  </item>
  <item neighborhood="Jardim Santa Josefina" zone="Zona Sul" city="São Paulo" state="São Paulo" location_id="BR&gt;Sao Paulo&gt;NULL&gt;Sao Paulo&gt;Zona Sul&gt;Jardim Santa Josefina" latitude="-23.665904" longitude="-46.73697" levels="NEIGHBORHOOD">
    <business kind="Rent" />
    <business kind="Sale" />
    <business kind="Development" />
  </item>
  <item neighborhood="Recanto dos Sonhos" zone="Zona Sul" city="São Paulo" state="São Paulo" location_id="BR&gt;Sao Paulo&gt;NULL&gt;Sao Paulo&gt;Zona Sul&gt;Recanto dos Sonhos" latitude="-23.715386" longitude="-46.702533" levels="NEIGHBORHOOD">
    <business kind="Rent" />
    <business kind="Sale" />
    <business kind="Development" />
  </item>
  <item neighborhood="Residencial Morumbi" zone="Zona Sul" city="São Paulo" state="São Paulo" location_id="BR&gt;Sao Paulo&gt;NULL&gt;Sao Paulo&gt;Zona Sul&gt;Residencial Morumbi" latitude="-23.613692" longitude="-46.75329" levels="NEIGHBORHOOD">
    <business kind="Rent" />
    <business kind="Sale" />
    <business kind="Development" />
  </item>
  <item neighborhood="Jardim Tua" zone="Zona Leste" city="São Paulo" state="São Paulo" location_id="BR&gt;Sao Paulo&gt;NULL&gt;Sao Paulo&gt;Zona Leste&gt;Jardim Tua" latitude="-23.555771" longitude="-46.639557" levels="NEIGHBORHOOD">
    <business kind="Rent" />
    <business kind="Sale" />
    <business kind="Development" />
  </item>
  <item neighborhood="Jardim Nazareth" zone="Zona Leste" city="São Paulo" state="São Paulo" location_id="BR&gt;Sao Paulo&gt;NULL&gt;Sao Paulo&gt;Zona Leste&gt;Jardim Nazareth" latitude="-23.523424" longitude="-46.402073" levels="NEIGHBORHOOD">
    <business kind="Rent" />
    <business kind="Sale" />
    <business kind="Development" />
  </item>
  <item neighborhood="Vila Patrimonial" zone="Zona Sul" city="São Paulo" state="São Paulo" location_id="BR&gt;Sao Paulo&gt;NULL&gt;Sao Paulo&gt;Zona Sul&gt;Vila Patrimonial" latitude="-23.676088" longitude="-46.638254" levels="NEIGHBORHOOD">
    <business kind="Rent" />
    <business kind="Sale" />
    <business kind="Development" />
  </item>
  <item neighborhood="Jardim Paraguacu" zone="Zona Leste" city="São Paulo" state="São Paulo" location_id="BR&gt;Sao Paulo&gt;NULL&gt;Sao Paulo&gt;Zona Leste&gt;Jardim Paraguacu" latitude="-23.593094" longitude="-46.504831" levels="NEIGHBORHOOD">
    <business kind="Rent" />
    <business kind="Sale" />
    <business kind="Development" />
  </item>
  <item neighborhood="Vila Nancy" zone="Zona Leste" city="São Paulo" state="São Paulo" location_id="BR&gt;Sao Paulo&gt;NULL&gt;Sao Paulo&gt;Zona Leste&gt;Vila Nancy" latitude="-23.533901" longitude="-46.411678" levels="NEIGHBORHOOD">
    <business kind="Rent" />
    <business kind="Sale" />
    <business kind="Development" />
  </item>
  <item neighborhood="Jardim Progresso" zone="Zona Sul" city="São Paulo" state="São Paulo" location_id="BR&gt;Sao Paulo&gt;NULL&gt;Sao Paulo&gt;Zona Sul&gt;Jardim Progresso" latitude="-23.734032" longitude="-46.678985" levels="NEIGHBORHOOD">
    <business kind="Rent" />
    <business kind="Sale" />
    <business kind="Development" />
  </item>
  <item neighborhood="Jardim Iae" zone="Zona Sul" city="São Paulo" state="São Paulo" location_id="BR&gt;Sao Paulo&gt;NULL&gt;Sao Paulo&gt;Zona Sul&gt;Jardim Iae" latitude="-23.666826" longitude="-46.788731" levels="NEIGHBORHOOD">
    <business kind="Rent" />
    <business kind="Sale" />
    <business kind="Development" />
  </item>
  <item neighborhood="Vila Renato" zone="Zona Leste" city="São Paulo" state="São Paulo" location_id="BR&gt;Sao Paulo&gt;NULL&gt;Sao Paulo&gt;Zona Leste&gt;Vila Renato" latitude="-23.617339" longitude="-46.507839" levels="NEIGHBORHOOD">
    <business kind="Rent" />
    <business kind="Sale" />
    <business kind="Development" />
  </item>
  <item neighborhood="Recanto Verde do Sol" zone="Zona Leste" city="São Paulo" state="São Paulo" location_id="BR&gt;Sao Paulo&gt;NULL&gt;Sao Paulo&gt;Zona Leste&gt;Recanto Verde do Sol" latitude="-23.614506" longitude="-46.415672" levels="NEIGHBORHOOD">
    <business kind="Rent" />
    <business kind="Sale" />
    <business kind="Development" />
  </item>
  <item neighborhood="Jardim Santa Rita" zone="Zona Leste" city="São Paulo" state="São Paulo" location_id="BR&gt;Sao Paulo&gt;NULL&gt;Sao Paulo&gt;Zona Leste&gt;Jardim Santa Rita" latitude="-23.513347" longitude="-46.41408" levels="NEIGHBORHOOD">
    <business kind="Rent" />
    <business kind="Sale" />
    <business kind="Development" />
  </item>
  <item neighborhood="Vila São Domingos" zone="Zona Oeste" city="São Paulo" state="São Paulo" location_id="BR&gt;Sao Paulo&gt;NULL&gt;Sao Paulo&gt;Zona Oeste&gt;Vila Sao Domingos" latitude="-23.581841" longitude="-46.750872" levels="NEIGHBORHOOD">
    <business kind="Rent" />
    <business kind="Sale" />
    <business kind="Development" />
  </item>
  <item neighborhood="Chácara Figueira Grande" zone="Zona Leste" city="São Paulo" state="São Paulo" location_id="BR&gt;Sao Paulo&gt;NULL&gt;Sao Paulo&gt;Zona Leste&gt;Chacara Figueira Grande" latitude="-23.506446" longitude="-46.426691" levels="NEIGHBORHOOD">
    <business kind="Rent" />
    <business kind="Sale" />
    <business kind="Development" />
  </item>
  <item neighborhood="Jardim Quarto Centenário" zone="Zona Sul" city="São Paulo" state="São Paulo" location_id="BR&gt;Sao Paulo&gt;NULL&gt;Sao Paulo&gt;Zona Sul&gt;Jardim Quarto Centenario" latitude="-23.586515" longitude="-46.499661" levels="NEIGHBORHOOD">
    <business kind="Rent" />
    <business kind="Sale" />
    <business kind="Development" />
  </item>
  <item neighborhood="Emburá" zone="Zona Sul" city="São Paulo" state="São Paulo" location_id="BR&gt;Sao Paulo&gt;NULL&gt;Sao Paulo&gt;Zona Sul&gt;Embura" latitude="-23.936254" longitude="-46.642888" levels="NEIGHBORHOOD">
    <business kind="Rent" />
    <business kind="Sale" />
    <business kind="Development" />
  </item>
  <item neighborhood="Jardim Cambará" zone="Zona Oeste" city="São Paulo" state="São Paulo" location_id="BR&gt;Sao Paulo&gt;NULL&gt;Sao Paulo&gt;Zona Oeste&gt;Jardim Cambara" latitude="-23.581463" longitude="-46.791648" levels="NEIGHBORHOOD">
    <business kind="Rent" />
    <business kind="Sale" />
    <business kind="Development" />
  </item>
  <item neighborhood="Vila Agueda" zone="Centro" city="São Paulo" state="São Paulo" location_id="BR&gt;Sao Paulo&gt;NULL&gt;Sao Paulo&gt;Centro&gt;Vila Agueda" latitude="-21.292246" longitude="-50.342843" levels="NEIGHBORHOOD">
    <business kind="Rent" />
    <business kind="Sale" />
    <business kind="Development" />
  </item>
  <item neighborhood="Morada do Sol" zone="Zona Norte" city="São Paulo" state="São Paulo" location_id="BR&gt;Sao Paulo&gt;NULL&gt;Sao Paulo&gt;Zona Norte&gt;Morada do Sol" latitude="-23.433242" longitude="-46.777106" levels="NEIGHBORHOOD">
    <business kind="Rent" />
    <business kind="Sale" />
    <business kind="Development" />
  </item>
  <item neighborhood="Vila Leme" zone="Zona Leste" city="São Paulo" state="São Paulo" location_id="BR&gt;Sao Paulo&gt;NULL&gt;Sao Paulo&gt;Zona Leste&gt;Vila Leme" latitude="-23.567694" longitude="-46.570444" levels="NEIGHBORHOOD">
    <business kind="Rent" />
    <business kind="Sale" />
    <business kind="Development" />
  </item>
  <item neighborhood="Jardim Leme" zone="Zona Sul" city="São Paulo" state="São Paulo" location_id="BR&gt;Sao Paulo&gt;NULL&gt;Sao Paulo&gt;Zona Sul&gt;Jardim Leme" latitude="-23.645368" longitude="-46.793207" levels="NEIGHBORHOOD">
    <business kind="Rent" />
    <business kind="Sale" />
    <business kind="Development" />
  </item>
  <item neighborhood="Jardim Silvia" zone="Zona Oeste" city="São Paulo" state="São Paulo" location_id="BR&gt;Sao Paulo&gt;NULL&gt;Sao Paulo&gt;Zona Oeste&gt;Jardim Silvia" latitude="-23.598186" longitude="-46.704949" levels="NEIGHBORHOOD">
    <business kind="Rent" />
    <business kind="Sale" />
    <business kind="Development" />
  </item>
  <item neighborhood="Parque Petrópolis" zone="Zona Norte" city="São Paulo" state="São Paulo" location_id="BR&gt;Sao Paulo&gt;NULL&gt;Sao Paulo&gt;Zona Norte&gt;PARQUE PETROPOLIS" latitude="-23.341713" longitude="-46.563039" levels="NEIGHBORHOOD">
    <business kind="Rent" />
    <business kind="Sale" />
    <business kind="Development" />
  </item>
  <item neighborhood=" Jardim São Rafael" zone="Zona Sul" city="São Paulo" state="São Paulo" location_id="BR&gt;Sao Paulo&gt;NULL&gt;Sao Paulo&gt;Zona Sul&gt; Jardim Sao Rafael" latitude="-23.759347" longitude="-46.715821" levels="NEIGHBORHOOD">
    <business kind="Rent" />
    <business kind="Sale" />
    <business kind="Development" />
  </item>
  <item neighborhood="Cohab Inacio Monteiro" zone="Zona Leste" city="São Paulo" state="São Paulo" location_id="BR&gt;Sao Paulo&gt;NULL&gt;Sao Paulo&gt;Zona Leste&gt;Cohab Inacio Monteiro" latitude="-23.569416" longitude="-46.404474" levels="NEIGHBORHOOD">
    <business kind="Rent" />
    <business kind="Sale" />
    <business kind="Development" />
  </item>
  <item neighborhood="Vila Hebe" zone="Zona Norte" city="São Paulo" state="São Paulo" location_id="BR&gt;Sao Paulo&gt;NULL&gt;Sao Paulo&gt;Zona Norte&gt;Vila Hebe" latitude="-23.475071" longitude="-46.672043" levels="NEIGHBORHOOD">
    <business kind="Rent" />
    <business kind="Sale" />
    <business kind="Development" />
  </item>
  <item neighborhood="Vila Alzira" zone="Zona Leste" city="São Paulo" state="São Paulo" location_id="BR&gt;Sao Paulo&gt;NULL&gt;Sao Paulo&gt;Zona Leste&gt;Vila Alzira" latitude="-23.610083" longitude="-46.522881" levels="NEIGHBORHOOD">
    <business kind="Rent" />
    <business kind="Sale" />
    <business kind="Development" />
  </item>
  <item neighborhood="Jardim São Roberto" zone="Zona Leste" city="São Paulo" state="São Paulo" location_id="BR&gt;Sao Paulo&gt;NULL&gt;Sao Paulo&gt;Zona Leste&gt;Jardim Sao Roberto" latitude="-23.620388" longitude="-46.501222" levels="NEIGHBORHOOD">
    <business kind="Rent" />
    <business kind="Sale" />
    <business kind="Development" />
  </item>
  <item neighborhood="Jardim Peri Novo" zone="Zona Norte" city="São Paulo" state="São Paulo" location_id="BR&gt;Sao Paulo&gt;NULL&gt;Sao Paulo&gt;Zona Norte&gt;Jardim Peri Novo" latitude="-23.454976" longitude="-46.669931" levels="NEIGHBORHOOD">
    <business kind="Rent" />
    <business kind="Sale" />
    <business kind="Development" />
  </item>
  <item neighborhood="Vila Santa Ines" zone="Zona Leste" city="São Paulo" state="São Paulo" location_id="BR&gt;Sao Paulo&gt;NULL&gt;Sao Paulo&gt;Zona Leste&gt;Vila Santa Ines" latitude="-23.493307" longitude="-46.467549" levels="NEIGHBORHOOD">
    <business kind="Rent" />
    <business kind="Sale" />
    <business kind="Development" />
  </item>
  <item neighborhood="Parque Novo Lar" zone="Zona Leste" city="São Paulo" state="São Paulo" location_id="BR&gt;Sao Paulo&gt;NULL&gt;Sao Paulo&gt;Zona Leste&gt;Parque Novo Lar" latitude="-23.599008" longitude="-46.503027" levels="NEIGHBORHOOD">
    <business kind="Rent" />
    <business kind="Sale" />
    <business kind="Development" />
  </item>
  <item neighborhood="Jardim Paulistano Zona Norte" zone="Zona Norte" city="São Paulo" state="São Paulo" location_id="BR&gt;Sao Paulo&gt;NULL&gt;Sao Paulo&gt;Zona Norte&gt;Jardim Paulistano Zona Norte" latitude="-23.452956" longitude="-46.710456" levels="NEIGHBORHOOD">
    <business kind="Rent" />
    <business kind="Sale" />
    <business kind="Development" />
  </item>
  <item neighborhood="Jardim Sao Gabriel" zone="Zona Leste" city="São Paulo" state="São Paulo" location_id="BR&gt;Sao Paulo&gt;NULL&gt;Sao Paulo&gt;Zona Leste&gt;Jardim Sao Gabriel" latitude="-23.593413" longitude="-46.500621" levels="NEIGHBORHOOD">
    <business kind="Rent" />
    <business kind="Sale" />
    <business kind="Development" />
  </item>
  <item neighborhood="Vila Silva Teles" zone="Zona Leste" city="São Paulo" state="São Paulo" location_id="BR&gt;Sao Paulo&gt;NULL&gt;Sao Paulo&gt;Zona Leste&gt;Vila Silva Teles" latitude="-23.52734" longitude="-46.399671" levels="NEIGHBORHOOD">
    <business kind="Rent" />
    <business kind="Sale" />
    <business kind="Development" />
  </item>
  <item neighborhood="Jardim Capelinha" zone="Zona Sul" city="São Paulo" state="São Paulo" location_id="BR&gt;Sao Paulo&gt;NULL&gt;Sao Paulo&gt;Zona Sul&gt;Jardim Capelinha" latitude="-23.657382" longitude="-46.750267" levels="NEIGHBORHOOD">
    <business kind="Rent" />
    <business kind="Sale" />
    <business kind="Development" />
  </item>
  <item neighborhood="Alto da Riviera" zone="Zona Sul" city="São Paulo" state="São Paulo" location_id="BR&gt;Sao Paulo&gt;NULL&gt;Sao Paulo&gt;Zona Sul&gt;Alto da Riviera" latitude="-23.699916" longitude="-46.763657" levels="NEIGHBORHOOD">
    <business kind="Rent" />
    <business kind="Sale" />
    <business kind="Development" />
  </item>
  <item neighborhood="Ponte Pequena" zone="Zona Oeste" city="São Paulo" state="São Paulo" location_id="BR&gt;Sao Paulo&gt;NULL&gt;Sao Paulo&gt;Zona Oeste&gt;Ponte Pequena" latitude="-23.525032" longitude="-46.629509" levels="NEIGHBORHOOD">
    <business kind="Rent" />
    <business kind="Sale" />
    <business kind="Development" />
  </item>
  <item neighborhood="Jardim Bandeirante" zone="Zona Sul" city="São Paulo" state="São Paulo" location_id="BR&gt;Sao Paulo&gt;NULL&gt;Sao Paulo&gt;Zona Sul&gt;Jardim Bandeirante" latitude="-23.557835" longitude="-46.476182" levels="NEIGHBORHOOD">
    <business kind="Rent" />
    <business kind="Sale" />
    <business kind="Development" />
  </item>
  <item neighborhood="Jardim Bandeirantes Zona Norte" zone="Zona Norte" city="São Paulo" state="São Paulo" location_id="BR&gt;Sao Paulo&gt;NULL&gt;Sao Paulo&gt;Zona Norte&gt;Jardim Bandeirantes Zona Norte" latitude="-23.45715" longitude="-46.735157" levels="NEIGHBORHOOD">
    <business kind="Rent" />
    <business kind="Sale" />
    <business kind="Development" />
  </item>
  <item neighborhood="Conjunto Habitacional Aguia de Haia" zone="Zona Leste" city="São Paulo" state="São Paulo" location_id="BR&gt;Sao Paulo&gt;NULL&gt;Sao Paulo&gt;Zona Leste&gt;Conjunto Habitacional Aguia de Haia" latitude="-23.521139" longitude="-46.472358" levels="NEIGHBORHOOD">
    <business kind="Rent" />
    <business kind="Sale" />
    <business kind="Development" />
  </item>
  <item neighborhood="Jardim Itápolis" zone="Zona Leste" city="São Paulo" state="São Paulo" location_id="BR&gt;Sao Paulo&gt;NULL&gt;Sao Paulo&gt;Zona Leste&gt;Jardim Itapolis" latitude="-23.59534" longitude="-46.497613" levels="NEIGHBORHOOD">
    <business kind="Rent" />
    <business kind="Sale" />
    <business kind="Development" />
  </item>
  <item neighborhood="Jardim Arpoardor" zone="Zona Oeste" city="São Paulo" state="São Paulo" location_id="BR&gt;Sao Paulo&gt;NULL&gt;Sao Paulo&gt;Zona Oeste&gt;Jardim Arpoardor" latitude="-23.601482" longitude="-46.785342" levels="NEIGHBORHOOD">
    <business kind="Rent" />
    <business kind="Sale" />
    <business kind="Development" />
  </item>
  <item neighborhood="Tres Cruzes" zone="Zona Norte" city="São Paulo" state="São Paulo" location_id="BR&gt;Sao Paulo&gt;NULL&gt;Sao Paulo&gt;Zona Norte&gt;Tres Cruzes" latitude="-23.413661" longitude="-46.57068" levels="NEIGHBORHOOD">
    <business kind="Rent" />
    <business kind="Sale" />
    <business kind="Development" />
  </item>
  <item neighborhood="Jardim Pedreira" zone="Zona Sul" city="São Paulo" state="São Paulo" location_id="BR&gt;Sao Paulo&gt;NULL&gt;Sao Paulo&gt;Zona Sul&gt;Jardim Pedreira" latitude="-23.695759" longitude="-46.671741" levels="NEIGHBORHOOD">
    <business kind="Rent" />
    <business kind="Sale" />
    <business kind="Development" />
  </item>
  <item neighborhood="Jardim Ataliba Leonel" zone="Zona Norte" city="São Paulo" state="São Paulo" location_id="BR&gt;Sao Paulo&gt;NULL&gt;Sao Paulo&gt;Zona Norte&gt;Jardim Ataliba Leonel" latitude="-23.445333" longitude="-46.58671" levels="NEIGHBORHOOD">
    <business kind="Rent" />
    <business kind="Sale" />
    <business kind="Development" />
  </item>
  <item neighborhood="Jardim Cinco de Julho" zone="Zona Leste" city="São Paulo" state="São Paulo" location_id="BR&gt;Sao Paulo&gt;NULL&gt;Sao Paulo&gt;Zona Leste&gt;Jardim Cinco de Julho" latitude="-23.580647" longitude="-46.49641" levels="NEIGHBORHOOD">
    <business kind="Rent" />
    <business kind="Sale" />
    <business kind="Development" />
  </item>
  <item neighborhood="Vila Missionaria" zone="Zona Sul" city="São Paulo" state="São Paulo" location_id="BR&gt;Sao Paulo&gt;NULL&gt;Sao Paulo&gt;Zona Sul&gt;Vila Missionaria" latitude="-23.690599" longitude="-46.650017" levels="NEIGHBORHOOD">
    <business kind="Rent" />
    <business kind="Sale" />
    <business kind="Development" />
  </item>
  <item neighborhood="Vila Catupia" zone="Zona Norte" city="São Paulo" state="São Paulo" location_id="BR&gt;Sao Paulo&gt;NULL&gt;Sao Paulo&gt;Zona Norte&gt;Vila Catupia" latitude="-23.492793" longitude="-46.713103" levels="NEIGHBORHOOD">
    <business kind="Rent" />
    <business kind="Sale" />
    <business kind="Development" />
  </item>
  <item neighborhood="Vila Homero" zone="Zona Oeste" city="São Paulo" state="São Paulo" location_id="BR&gt;Sao Paulo&gt;NULL&gt;Sao Paulo&gt;Zona Oeste&gt;Vila Homero" latitude="-23.449534" longitude="-46.758127" levels="NEIGHBORHOOD">
    <business kind="Rent" />
    <business kind="Sale" />
    <business kind="Development" />
  </item>
  <item neighborhood="Vila Miami" zone="Zona Leste" city="São Paulo" state="São Paulo" location_id="BR&gt;Sao Paulo&gt;NULL&gt;Sao Paulo&gt;Zona Leste&gt;Vila Miami" latitude="-23.605808" longitude="-46.527695" levels="NEIGHBORHOOD">
    <business kind="Rent" />
    <business kind="Sale" />
    <business kind="Development" />
  </item>
  <item neighborhood="Jardim Edith" zone="Zona Sul" city="São Paulo" state="São Paulo" location_id="BR&gt;Sao Paulo&gt;NULL&gt;Sao Paulo&gt;Zona Sul&gt;Jardim Edith" latitude="-23.721858" longitude="-46.686833" levels="NEIGHBORHOOD">
    <business kind="Rent" />
    <business kind="Sale" />
    <business kind="Development" />
  </item>
  <item neighborhood="Chácara Cocaia" zone="Zona Sul" city="São Paulo" state="São Paulo" location_id="BR&gt;Sao Paulo&gt;NULL&gt;Sao Paulo&gt;Zona Sul&gt;Chacara Cocaia" latitude="-23.769256" longitude="-46.692871" levels="NEIGHBORHOOD">
    <business kind="Rent" />
    <business kind="Sale" />
    <business kind="Development" />
  </item>
  <item neighborhood="Jardim Bela Vista" zone="Zona Sul" city="São Paulo" state="São Paulo" location_id="BR&gt;Sao Paulo&gt;NULL&gt;Sao Paulo&gt;Zona Sul&gt;Jardim Bela Vista" latitude="-23.725828" longitude="-46.708573" levels="NEIGHBORHOOD">
    <business kind="Rent" />
    <business kind="Sale" />
    <business kind="Development" />
  </item>
  <item neighborhood="Vila Santa Eulália" zone="Zona Norte" city="São Paulo" state="São Paulo" location_id="BR&gt;Sao Paulo&gt;NULL&gt;Sao Paulo&gt;Zona Norte&gt;Vila Santa Eulalia" latitude="-23.555771" longitude="-46.639557" levels="NEIGHBORHOOD">
    <business kind="Rent" />
    <business kind="Sale" />
    <business kind="Development" />
  </item>
  <item neighborhood="Jardim Nova Sao Paulo Sao Rafael" zone="Centro" city="São Paulo" state="São Paulo" location_id="BR&gt;Sao Paulo&gt;NULL&gt;Sao Paulo&gt;Centro&gt;Jardim Nova Sao Paulo Sao Rafael" latitude="-23.555771" longitude="-46.639557" levels="NEIGHBORHOOD">
    <business kind="Rent" />
    <business kind="Sale" />
    <business kind="Development" />
  </item>
  <item neighborhood=" Conjunto Habitacional Juscelino Kubitscheck de Oliveira" zone="Zona Leste" city="São Paulo" state="São Paulo" location_id="BR&gt;Sao Paulo&gt;NULL&gt;Sao Paulo&gt;Zona Leste&gt; Conjunto Habitacional Juscelino Kubitscheck de Oliveira" latitude="-23.566902" longitude="-46.39727" levels="NEIGHBORHOOD">
    <business kind="Rent" />
    <business kind="Sale" />
    <business kind="Development" />
  </item>
  <item neighborhood="Jardim Paineiras" zone="Centro" city="São Paulo" state="São Paulo" location_id="BR&gt;Sao Paulo&gt;NULL&gt;Sao Paulo&gt;Centro&gt;Jardim Paineiras" latitude="-23.555771" longitude="-46.639557" levels="NEIGHBORHOOD">
    <business kind="Rent" />
    <business kind="Sale" />
    <business kind="Development" />
  </item>
  <item neighborhood="Cidade Ipava" zone="Zona Sul" city="São Paulo" state="São Paulo" location_id="BR&gt;Sao Paulo&gt;NULL&gt;Sao Paulo&gt;Zona Sul&gt;Cidade Ipava" latitude="-23.72313" longitude="-46.758617" levels="NEIGHBORHOOD">
    <business kind="Rent" />
    <business kind="Sale" />
    <business kind="Development" />
  </item>
  <item neighborhood="Vila Bauab" zone="Zona Leste" city="São Paulo" state="São Paulo" location_id="BR&gt;Sao Paulo&gt;NULL&gt;Sao Paulo&gt;Zona Leste&gt;Vila Bauab" latitude="-23.51574" longitude="-46.480775" levels="NEIGHBORHOOD">
    <business kind="Rent" />
    <business kind="Sale" />
    <business kind="Development" />
  </item>
  <item neighborhood="Jardim Irapiranga" zone="Zona Sul" city="São Paulo" state="São Paulo" location_id="BR&gt;Sao Paulo&gt;NULL&gt;Sao Paulo&gt;Zona Sul&gt;Jardim Irapiranga" latitude="-23.663658" longitude="-46.792602" levels="NEIGHBORHOOD">
    <business kind="Rent" />
    <business kind="Sale" />
    <business kind="Development" />
  </item>
  <item neighborhood="Jardim Lucinda" zone="Zona Leste" city="São Paulo" state="São Paulo" location_id="BR&gt;Sao Paulo&gt;NULL&gt;Sao Paulo&gt;Zona Leste&gt;Jardim Lucinda" latitude="-23.516217" longitude="-46.441108" levels="NEIGHBORHOOD">
    <business kind="Rent" />
    <business kind="Sale" />
    <business kind="Development" />
  </item>
  <item neighborhood="Jardim Fontalis" zone="Zona Norte" city="São Paulo" state="São Paulo" location_id="BR&gt;Sao Paulo&gt;NULL&gt;Sao Paulo&gt;Zona Norte&gt;Jardim Fontalis" latitude="-23.438432" longitude="-46.57707" levels="NEIGHBORHOOD">
    <business kind="Rent" />
    <business kind="Sale" />
    <business kind="Development" />
  </item>
  <item neighborhood="Jardim Etelvina" zone="Zona Leste" city="São Paulo" state="São Paulo" location_id="BR&gt;Sao Paulo&gt;NULL&gt;Sao Paulo&gt;Zona Leste&gt;Jardim Etelvina" latitude="-23.527396" longitude="-46.421434" levels="NEIGHBORHOOD">
    <business kind="Rent" />
    <business kind="Sale" />
    <business kind="Development" />
  </item>
  <item neighborhood="Jardim Caguassu" zone="Zona Leste" city="São Paulo" state="São Paulo" location_id="BR&gt;Sao Paulo&gt;NULL&gt;Sao Paulo&gt;Zona Leste&gt;Jardim Caguassu" latitude="-23.580927" longitude="-46.51175" levels="NEIGHBORHOOD">
    <business kind="Rent" />
    <business kind="Sale" />
    <business kind="Development" />
  </item>
  <item neighborhood="Jardim Almanara" zone="Zona Norte" city="São Paulo" state="São Paulo" location_id="BR&gt;Sao Paulo&gt;NULL&gt;Sao Paulo&gt;Zona Norte&gt;Jardim Almanara" latitude="-23.473326" longitude="-46.674759" levels="NEIGHBORHOOD">
    <business kind="Rent" />
    <business kind="Sale" />
    <business kind="Development" />
  </item>
  <item neighborhood="Vila Chabilândia" zone="Zona Leste" city="São Paulo" state="São Paulo" location_id="BR&gt;Sao Paulo&gt;NULL&gt;Sao Paulo&gt;Zona Leste&gt;Vila Chabilandia" latitude="-23.535408" longitude="-46.407476" levels="NEIGHBORHOOD">
    <business kind="Rent" />
    <business kind="Sale" />
    <business kind="Development" />
  </item>
  <item neighborhood="Jardim das Figueiras" zone="Zona Leste" city="São Paulo" state="São Paulo" location_id="BR&gt;Sao Paulo&gt;NULL&gt;Sao Paulo&gt;Zona Leste&gt;JARDIM DAS FIGUEIRAS" latitude="-23.61763" longitude="-46.56683" levels="NEIGHBORHOOD">
    <business kind="Rent" />
    <business kind="Sale" />
    <business kind="Development" />
  </item>
  <item neighborhood="Vila Anadir" zone="Zona Leste" city="São Paulo" state="São Paulo" location_id="BR&gt;Sao Paulo&gt;NULL&gt;Sao Paulo&gt;Zona Leste&gt;Vila Anadir" latitude="-23.596485" longitude="-46.53853" levels="NEIGHBORHOOD">
    <business kind="Rent" />
    <business kind="Sale" />
    <business kind="Development" />
  </item>
  <item neighborhood="Jardim Orly" zone="Zona Sul" city="São Paulo" state="São Paulo" location_id="BR&gt;Sao Paulo&gt;NULL&gt;Sao Paulo&gt;Zona Sul&gt;Jardim Orly" latitude="-23.686094" longitude="-46.664499" levels="NEIGHBORHOOD">
    <business kind="Rent" />
    <business kind="Sale" />
    <business kind="Development" />
  </item>
  <item neighborhood="Vila Quintana" zone="Zona Sul" city="São Paulo" state="São Paulo" location_id="BR&gt;Sao Paulo&gt;NULL&gt;Sao Paulo&gt;Zona Sul&gt;Vila Quintana" latitude="-23.742455" longitude="-46.704949" levels="NEIGHBORHOOD">
    <business kind="Rent" />
    <business kind="Sale" />
    <business kind="Development" />
  </item>
  <item neighborhood="Jardim Lucia" zone="Zona Oeste" city="São Paulo" state="São Paulo" location_id="BR&gt;Sao Paulo&gt;NULL&gt;Sao Paulo&gt;Zona Oeste&gt;Jardim Lucia" latitude="-23.587285" longitude="-46.767151" levels="NEIGHBORHOOD">
    <business kind="Rent" />
    <business kind="Sale" />
    <business kind="Development" />
  </item>
  <item neighborhood="Jardim Sao Jose Sao Mateus" zone="Zona Leste" city="São Paulo" state="São Paulo" location_id="BR&gt;Sao Paulo&gt;NULL&gt;Sao Paulo&gt;Zona Leste&gt;Jardim Sao Jose Sao Mateus" latitude="-23.579842" longitude="-46.495809" levels="NEIGHBORHOOD">
    <business kind="Rent" />
    <business kind="Sale" />
    <business kind="Development" />
  </item>
  <item neighborhood="Conjunto Habitacional A E Carvalho " zone="Zona Leste" city="São Paulo" state="São Paulo" location_id="BR&gt;Sao Paulo&gt;NULL&gt;Sao Paulo&gt;Zona Leste&gt;Conjunto Habitacional A E Carvalho" latitude="-23.527694" longitude="-46.462139" levels="NEIGHBORHOOD">
    <business kind="Rent" />
    <business kind="Sale" />
    <business kind="Development" />
  </item>
  <item neighborhood="Jardim Vera Cruz Zona Sul" zone="Zona Sul" city="São Paulo" state="São Paulo" location_id="BR&gt;Sao Paulo&gt;NULL&gt;Sao Paulo&gt;Zona Sul&gt;Jardim Vera Cruz Zona Sul" latitude="-23.739012" longitude="-46.779293" levels="NEIGHBORHOOD">
    <business kind="Rent" />
    <business kind="Sale" />
    <business kind="Development" />
  </item>
  <item neighborhood="Parque São José" zone="Zona Sul" city="São Paulo" state="São Paulo" location_id="BR&gt;Sao Paulo&gt;NULL&gt;Sao Paulo&gt;Zona Sul&gt;Parque Sao Jose" latitude="-23.74145" longitude="-46.693475" levels="NEIGHBORHOOD">
    <business kind="Rent" />
    <business kind="Sale" />
    <business kind="Development" />
  </item>
  <item neighborhood="Jardim Sao Miguel" zone="Zona Norte" city="São Paulo" state="São Paulo" location_id="BR&gt;Sao Paulo&gt;NULL&gt;Sao Paulo&gt;Zona Norte&gt;Jardim Sao Miguel" latitude="-23.489863" longitude="-46.652732" levels="NEIGHBORHOOD">
    <business kind="Rent" />
    <business kind="Sale" />
    <business kind="Development" />
  </item>
  <item neighborhood="Jardim Castro Alves" zone="Zona Sul" city="São Paulo" state="São Paulo" location_id="BR&gt;Sao Paulo&gt;NULL&gt;Sao Paulo&gt;Zona Sul&gt;Jardim Castro Alves" latitude="-23.744407" longitude="-46.681399" levels="NEIGHBORHOOD">
    <business kind="Rent" />
    <business kind="Sale" />
    <business kind="Development" />
  </item>
  <item neighborhood="Jardim Santa Tereza" zone="Zona Sul" city="São Paulo" state="São Paulo" location_id="BR&gt;Sao Paulo&gt;NULL&gt;Sao Paulo&gt;Zona Sul&gt;Jardim Santa Tereza" latitude="-23.555771" longitude="-46.639557" levels="NEIGHBORHOOD">
    <business kind="Rent" />
    <business kind="Sale" />
    <business kind="Development" />
  </item>
  <item neighborhood="Vila Helena" zone="Zona Leste" city="São Paulo" state="São Paulo" location_id="BR&gt;Sao Paulo&gt;NULL&gt;Sao Paulo&gt;Zona Leste&gt;Vila Helena" latitude="-23.491007" longitude="-46.417467" levels="NEIGHBORHOOD">
    <business kind="Rent" />
    <business kind="Sale" />
    <business kind="Development" />
  </item>
  <item neighborhood="Jardim dos ipês" zone="Zona Leste" city="São Paulo" state="São Paulo" location_id="BR&gt;Sao Paulo&gt;NULL&gt;Sao Paulo&gt;Zona Leste&gt;Jardim dos ipes" latitude="-23.50384" longitude="-46.41408" levels="NEIGHBORHOOD">
    <business kind="Rent" />
    <business kind="Sale" />
    <business kind="Development" />
  </item>
  <item neighborhood="Vila Bianca" zone="Zona Norte" city="São Paulo" state="São Paulo" location_id="BR&gt;Sao Paulo&gt;NULL&gt;Sao Paulo&gt;Zona Norte&gt;Vila Bianca" latitude="-23.498996" longitude="-46.625592" levels="NEIGHBORHOOD">
    <business kind="Rent" />
    <business kind="Sale" />
    <business kind="Development" />
  </item>
  <item neighborhood="Jardim Sao Silvestre" zone="Zona Sul" city="São Paulo" state="São Paulo" location_id="BR&gt;Sao Paulo&gt;NULL&gt;Sao Paulo&gt;Zona Sul&gt;Jardim Sao Silvestre" latitude="-23.826342" longitude="-46.737876" levels="NEIGHBORHOOD">
    <business kind="Rent" />
    <business kind="Sale" />
    <business kind="Development" />
  </item>
  <item neighborhood="Jardim Estrela D alva" zone="Zona Norte" city="São Paulo" state="São Paulo" location_id="BR&gt;Sao Paulo&gt;NULL&gt;Sao Paulo&gt;Zona Norte&gt;Jardim Estrela D alva" latitude="-23.434502" longitude="-46.57948" levels="NEIGHBORHOOD">
    <business kind="Rent" />
    <business kind="Sale" />
    <business kind="Development" />
  </item>
  <item neighborhood="Conjunto Residencial Prestes Maia" zone="Zona Leste" city="São Paulo" state="São Paulo" location_id="BR&gt;Sao Paulo&gt;NULL&gt;Sao Paulo&gt;Zona Leste&gt;Conjunto Residencial Prestes Maia" latitude="-23.567493" longitude="-46.407476" levels="NEIGHBORHOOD">
    <business kind="Rent" />
    <business kind="Sale" />
    <business kind="Development" />
  </item>
  <item neighborhood="Jardim Entre Serras" zone="Zona Norte" city="São Paulo" state="São Paulo" location_id="BR&gt;Sao Paulo&gt;NULL&gt;Sao Paulo&gt;Zona Norte&gt;Jardim Entre Serras" latitude="-23.456911" longitude="-46.616676" levels="NEIGHBORHOOD">
    <business kind="Rent" />
    <business kind="Sale" />
    <business kind="Development" />
  </item>
  <item neighborhood="Vila Maria Zélia" zone="Zona Leste" city="São Paulo" state="São Paulo" location_id="BR&gt;Sao Paulo&gt;NULL&gt;Sao Paulo&gt;Zona Leste&gt;Vila Maria Zelia" latitude="-23.532439" longitude="-46.597557" levels="NEIGHBORHOOD">
    <business kind="Rent" />
    <business kind="Sale" />
    <business kind="Development" />
  </item>
  <item neighborhood="Jardim Alto Pedroso" zone="Zona Leste" city="São Paulo" state="São Paulo" location_id="BR&gt;Sao Paulo&gt;NULL&gt;Sao Paulo&gt;Zona Leste&gt;Jardim Alto Pedroso" latitude="-23.497325" longitude="-46.448317" levels="NEIGHBORHOOD">
    <business kind="Rent" />
    <business kind="Sale" />
    <business kind="Development" />
  </item>
  <item neighborhood="Conjunto Habitacional Castro Alves" zone="Zona Leste" city="São Paulo" state="São Paulo" location_id="BR&gt;Sao Paulo&gt;NULL&gt;Sao Paulo&gt;Zona Leste&gt;Conjunto Habitacional Castro Alves" latitude="-23.581299" longitude="-46.404474" levels="NEIGHBORHOOD">
    <business kind="Rent" />
    <business kind="Sale" />
    <business kind="Development" />
  </item>
  <item neighborhood="Vila Jaguari" zone="Zona Oeste" city="São Paulo" state="São Paulo" location_id="BR&gt;Sao Paulo&gt;NULL&gt;Sao Paulo&gt;Zona Oeste&gt;Vila Jaguari" latitude="-23.477335" longitude="-46.755708" levels="NEIGHBORHOOD">
    <business kind="Rent" />
    <business kind="Sale" />
    <business kind="Development" />
  </item>
  <item neighborhood="Jardim Imperial" zone="Zona Oeste" city="São Paulo" state="São Paulo" location_id="BR&gt;Sao Paulo&gt;NULL&gt;Sao Paulo&gt;Zona Oeste&gt;Jardim Imperial" latitude="-23.578248" longitude="-46.775059" levels="NEIGHBORHOOD">
    <business kind="Rent" />
    <business kind="Sale" />
    <business kind="Development" />
  </item>
  <item neighborhood="Jardim Souza" zone="Zona Sul" city="São Paulo" state="São Paulo" location_id="BR&gt;Sao Paulo&gt;NULL&gt;Sao Paulo&gt;Zona Sul&gt;Jardim Souza" latitude="-23.689172" longitude="-46.749058" levels="NEIGHBORHOOD">
    <business kind="Rent" />
    <business kind="Sale" />
    <business kind="Development" />
  </item>
  <item neighborhood="Jardim Silveira" zone="Zona Sul" city="São Paulo" state="São Paulo" location_id="BR&gt;Sao Paulo&gt;NULL&gt;Sao Paulo&gt;Zona Sul&gt;Jardim Silveira" latitude="-23.850051" longitude="-46.709933" levels="NEIGHBORHOOD">
    <business kind="Rent" />
    <business kind="Sale" />
    <business kind="Development" />
  </item>
  <item neighborhood="Jardim das Rosas" zone="Zona Sul" city="São Paulo" state="São Paulo" location_id="BR&gt;Sao Paulo&gt;NULL&gt;Sao Paulo&gt;Zona Sul&gt;Jardim das Rosas" latitude="-23.663658" longitude="-46.792602" levels="NEIGHBORHOOD">
    <business kind="Rent" />
    <business kind="Sale" />
    <business kind="Development" />
  </item>
  <item neighborhood="Vila Caju" zone="Zona Leste" city="São Paulo" state="São Paulo" location_id="BR&gt;Sao Paulo&gt;NULL&gt;Sao Paulo&gt;Zona Leste&gt;Vila Caju" latitude="-23.514774" longitude="-46.493403" levels="NEIGHBORHOOD">
    <business kind="Rent" />
    <business kind="Sale" />
    <business kind="Development" />
  </item>
  <item neighborhood="Parque Santana" zone="Zona Sul" city="São Paulo" state="São Paulo" location_id="BR&gt;Sao Paulo&gt;NULL&gt;Sao Paulo&gt;Zona Sul&gt;Parque Santana" latitude="-23.723971" longitude="-46.693776" levels="NEIGHBORHOOD">
    <business kind="Rent" />
    <business kind="Sale" />
    <business kind="Development" />
  </item>
  <item neighborhood="Jardim das Fontes" zone="Zona Sul" city="São Paulo" state="São Paulo" location_id="BR&gt;Sao Paulo&gt;NULL&gt;Sao Paulo&gt;Zona Sul&gt;Jardim das Fontes" latitude="-23.867402" longitude="-46.753895" levels="NEIGHBORHOOD">
    <business kind="Rent" />
    <business kind="Sale" />
    <business kind="Development" />
  </item>
  <item neighborhood="Jardim Carombe" zone="Zona Norte" city="São Paulo" state="São Paulo" location_id="BR&gt;Sao Paulo&gt;NULL&gt;Sao Paulo&gt;Zona Norte&gt;Jardim Carombe" latitude="-23.455832" longitude="-46.700117" levels="NEIGHBORHOOD">
    <business kind="Rent" />
    <business kind="Sale" />
    <business kind="Development" />
  </item>
  <item neighborhood="Vila João Batista" zone="Zona Norte" city="São Paulo" state="São Paulo" location_id="BR&gt;Sao Paulo&gt;NULL&gt;Sao Paulo&gt;Zona Norte&gt;Vila Joao Batista" latitude="-23.466133" longitude="-46.698004" levels="NEIGHBORHOOD">
    <business kind="Rent" />
    <business kind="Sale" />
    <business kind="Development" />
  </item>
  <item neighborhood="Jardim Silva Teles" zone="Zona Leste" city="São Paulo" state="São Paulo" location_id="BR&gt;Sao Paulo&gt;NULL&gt;Sao Paulo&gt;Zona Leste&gt;Jardim Silva Teles" latitude="-23.497414" longitude="-46.409277" levels="NEIGHBORHOOD">
    <business kind="Rent" />
    <business kind="Sale" />
    <business kind="Development" />
  </item>
  <item neighborhood="Vila Nova Utinga" zone="Zona Leste" city="São Paulo" state="São Paulo" location_id="BR&gt;Sao Paulo&gt;NULL&gt;Sao Paulo&gt;Zona Leste&gt;Vila Nova Utinga" latitude="-23.610149" longitude="-46.526492" levels="NEIGHBORHOOD">
    <business kind="Rent" />
    <business kind="Sale" />
    <business kind="Development" />
  </item>
  <item neighborhood="Jardim Três Corações" zone="Zona Sul" city="São Paulo" state="São Paulo" location_id="BR&gt;Sao Paulo&gt;NULL&gt;Sao Paulo&gt;Zona Sul&gt;Jardim Tres Coracoes" latitude="-23.769087" longitude="-46.683814" levels="NEIGHBORHOOD">
    <business kind="Rent" />
    <business kind="Sale" />
    <business kind="Development" />
  </item>
  <item neighborhood="Jardim Filhos da Terra" zone="Zona Norte" city="São Paulo" state="São Paulo" location_id="BR&gt;Sao Paulo&gt;NULL&gt;Sao Paulo&gt;Zona Norte&gt;Jardim Filhos da Terra" latitude="-23.447957" longitude="-46.57707" levels="NEIGHBORHOOD">
    <business kind="Rent" />
    <business kind="Sale" />
    <business kind="Development" />
  </item>
  <item neighborhood="Jardim Ana Lucia" zone="Zona Sul" city="São Paulo" state="São Paulo" location_id="BR&gt;Sao Paulo&gt;NULL&gt;Sao Paulo&gt;Zona Sul&gt;Jardim Ana Lucia" latitude="-23.717155" longitude="-46.690455" levels="NEIGHBORHOOD">
    <business kind="Rent" />
    <business kind="Sale" />
    <business kind="Development" />
  </item>
</inputs>